[
  {
    "document": "001672395",
    "zone": 36,
    "address": "NA,  NA,  hipoteca ",
    "lat": 2.4448143,
    "lon": -76.6147395
  },
  {
    "document": "1000119527",
    "zone": 4,
    "address": "Carrera 9 #73 Norte-107, placer, primax calibio frente a terraplaza",
    "lat": 2.485659874352683,
    "lon": -76.56154543161392
  },
  {
    "document": "1002776923",
    "zone": 3,
    "address": "Calle 70A Norte #5-23, La Paz , ",
    "lat": 2.4759823,
    "lon": -76.55983719999999
  },
  {
    "document": "1002776926",
    "zone": 23,
    "address": "Carrera 8 #10A Norte-64,  Prados Del Norte, Gestion Integral",
    "lat": 2.452407732024966,
    "lon": -76.602004906291
  },
  {
    "document": "1002777033",
    "zone": 5,
    "address": "Carrera 20 #61B Norte-119, villa tima el uvo, auxiliar cocina puesto 1 galeria la 13",
    "lat": 2.4908732,
    "lon": -76.57249089999999
  },
  {
    "document": "1002777953",
    "zone": 21,
    "address": "Carrera 6 #25-00, los hoyos, eds primax ",
    "lat": 2.4565461130890935,
    "lon": -76.59175381064415
  },
  {
    "document": "1002778456",
    "zone": 31,
    "address": "Carrera 7 # 7-38, centro, san andresito local 18",
    "lat": 2.4396957,
    "lon": -76.6077382
  },
  {
    "document": "1002778554",
    "zone": 13,
    "address": "Carrera 7B #26B Norte-62, palace, farmacenter",
    "lat": 2.4601088281252275,
    "lon": -76.59027993679047
  },
  {
    "document": "1002792027",
    "zone": 3,
    "address": "Calle 73 Norte #6A-52, la paz, via al bosque efagron mas abajo de asturias ",
    "lat": 2.4782216715204455,
    "lon": -76.5585242735187
  },
  {
    "document": "1002797018",
    "zone": 79,
    "address": "Carrera 17 con calle 12 esquina, las americas, alborautos renault Popayán ",
    "lat": 2.438054,
    "lon": -76.61620839999999
  },
  {
    "document": "1002797655",
    "zone": 69,
    "address": "Transversal 21 #23-37, Variante Sur, Por La Entrada Del Cementerio De Puelenje Multicars ",
    "lat": 2.4383141077119785,
    "lon": -76.62713302750461
  },
  {
    "document": "1002802712",
    "zone": 6,
    "address": "carrera 17F #56B Norte-28, zuldemaida, trilladora popayan Rucafe",
    "lat": 2.4907026,
    "lon": -76.57854309999999
  },
  {
    "document": "1002806028",
    "zone": 55,
    "address": "Calle 4 # 56-A 61, lomas de granada, vendedora farmacenter lomas 2",
    "lat": 2.459123576464282,
    "lon": -76.64485594612363
  },
  {
    "document": "1002821007",
    "zone": 12,
    "address": "Carrera 4E #25-28, pueblillo, después del colegio ",
    "lat": 2.445348719243692,
    "lon": -76.58199428298767
  },
  {
    "document": "1002821018",
    "zone": 85,
    "address": "Carrera 3 #21-197, Clicanto, ",
    "lat": 2.4290884145508724,
    "lon": -76.60861253233642
  },
  {
    "document": "1002821872",
    "zone": 2,
    "address": "NA,  jardines de paz,  conductor turbo",
    "lat": 2.499529852682454,
    "lon": -76.57343029975891
  },
  {
    "document": "1002822006",
    "zone": 21,
    "address": "Carrera 6 #19an-27, ciudad jardin, ayudante llaves del norte",
    "lat": 2.45308,
    "lon": -76.59488
  },
  {
    "document": "1002835057",
    "zone": 3,
    "address": "Diagonal 73E #5-00, la paz , conjunto coomeva",
    "lat": 2.477294436812022,
    "lon": -76.55708239469303
  },
  {
    "document": "1002835076",
    "zone": 33,
    "address": "Calle 6 #12-41, valencia, toque de angel",
    "lat": 2.4424749,
    "lon": -76.6125928
  },
  {
    "document": "1002876564",
    "zone": 86,
    "address": "Carrera 1 #19-51, santa monica, casa de la tia",
    "lat": 2.430099,
    "lon": -76.60561349999999
  },
  {
    "document": "1002921339",
    "zone": 73,
    "address": "Calle 19 # 33d-22, munich, esquina munich droguería jireth",
    "lat": 2.4468127,
    "lon": -76.6332024
  },
  {
    "document": "1002952086",
    "zone": 27,
    "address": "Carrera 3 #2n-37, Barrio antiguo liceo, NA",
    "lat": 2.4451682,
    "lon": -76.6015815
  },
  {
    "document": "1002955312",
    "zone": 20,
    "address": "Carrera 9 #6 Norte-03, avenida panamericana, exito panamericano ",
    "lat": 2.4512522681209905,
    "lon": -76.60704374313354
  },
  {
    "document": "1002956806",
    "zone": 12,
    "address": "Calle 147 # 17-78, urbanización yanaconas, bloque g casa 15 kpmg auditoria",
    "lat": 2.454879431314415,
    "lon": -76.58483642466346
  },
  {
    "document": "1002956838",
    "zone": 28,
    "address": "Calle 1N # 3-29, antiguo liceo, RG Salud",
    "lat": 2.4446449,
    "lon": -76.60226999999999
  },
  {
    "document": "1002957132",
    "zone": 99,
    "address": "Calle 11 # 5  - 15, Empedrado,  ",
    "lat": 2.435983273793554,
    "lon": -76.60721004009247
  },
  {
    "document": "1002957138",
    "zone": 41,
    "address": "Calle 4 # 33-12, sombrilla, bomba primax frente a terraplaza eds calibio",
    "lat": 2.4528052,
    "lon": -76.6278118
  },
  {
    "document": "1002957517",
    "zone": 21,
    "address": "Carrera 9 #22n-36, ciudad jardin, supergiros",
    "lat": 2.4589702,
    "lon": -76.5934382
  },
  {
    "document": "1002958121",
    "zone": 35,
    "address": "Calle 4 # 18-103, pandiguando, suzuky secretaria general",
    "lat": 2.4454674,
    "lon": -76.61559609999999
  },
  {
    "document": "1002958588",
    "zone": 21,
    "address": "Carrera 9 # 19  -  28, Ciudad Jardín , Super Pollo ",
    "lat": 2.456517640807655,
    "lon": -76.5935643017292
  },
  {
    "document": "1002959340",
    "zone": 9,
    "address": "calle 66 #12-68, vereda gonzales, cajero ara bella vista villa el mirador lote 11",
    "lat": 2.4785286645811295,
    "lon": -76.56648003176082
  },
  {
    "document": "1002959656",
    "zone": 14,
    "address": "Calle 34 #9-50, campo bello, panaderia y pasteleria trigales",
    "lat": 2.4660817,
    "lon": -76.58780159999999
  },
  {
    "document": "1002960246",
    "zone": 4,
    "address": "Calle 9 #73A Norte- 200, terraplaza<, Asesora de ventas local 175 quest",
    "lat": 2.4866781543907064,
    "lon": -76.5608024597168
  },
  {
    "document": "1002960405",
    "zone": 79,
    "address": "Carrera 17 #12-07,  colombia,  1 etapa alborautos renault lavador ",
    "lat": 2.4384322,
    "lon": -76.6161299
  },
  {
    "document": "1002961022",
    "zone": 19,
    "address": "Carrera 9 #15A Norte- 39, santa clara, panorex auxiliar rx ",
    "lat": 2.4546823497624453,
    "lon": -76.59958988428116
  },
  {
    "document": "1002961165",
    "zone": 3,
    "address": "Calle 73n # 2-57, lomas de granada, profesora colegio lideres del futuro",
    "lat": 2.4828391,
    "lon": -76.5588606
  },
  {
    "document": "1002961191",
    "zone": 35,
    "address": "Calle 7 # 20a-36, guayabal, NA",
    "lat": 2.4441817,
    "lon": -76.619102
  },
  {
    "document": "1002961391",
    "zone": 26,
    "address": "Calle 2 Norte #5-54, bolivar, jhonny pollos",
    "lat": 2.447428703562113,
    "lon": -76.6031204353149
  },
  {
    "document": "1002962024",
    "zone": 41,
    "address": "Carrera 32 #4-125, la sombrilla, panaderia el cisne oficios varios",
    "lat": 2.450843,
    "lon": -76.6273173
  },
  {
    "document": "1002963046",
    "zone": 13,
    "address": "carrera 6 #26B Norte-26, los hoyos, servientrega",
    "lat": 2.457385439859558,
    "lon": -76.58896299904393
  },
  {
    "document": "1002963579",
    "zone": 39,
    "address": "Carrera 28 # 5 a-08, santa helena, campanario oxford local 127",
    "lat": 2.4488259,
    "lon": -76.62472160000002
  },
  {
    "document": "1002963975",
    "zone": 25,
    "address": "Calle 3 #8-58, centro, banco de bogota auxiliar operativo",
    "lat": 2.4438534,
    "lon": -76.60764999999999
  },
  {
    "document": "1002964368",
    "zone": 44,
    "address": "Calle 5 # 50-201, los jasminez, frente a las garzas control traslibertad",
    "lat": 2.4556868,
    "lon": -76.6392632
  },
  {
    "document": "1002964376",
    "zone": 6,
    "address": "Carrera 17 61n-16, la arboleda, Centro Comercial Palmera Plaza Olimpica",
    "lat": 2.4870416,
    "lon": -76.57598220000001
  },
  {
    "document": "1002964441",
    "zone": 21,
    "address": "Calle 21n #6-30,  ciudad jardin,  cajera y vendedora antojadas",
    "lat": 2.4544057,
    "lon": -76.5936889
  },
  {
    "document": "1002965081",
    "zone": 20,
    "address": "calle 12 Norte #10 Norte-29,  santa clara,  sanitas aux administrativa area urgencias",
    "lat": 2.454685029510269,
    "lon": -76.6023163497448
  },
  {
    "document": "1002965111",
    "zone": 97,
    "address": "Carrera 1 # 17-23, sauces, chavez Burger ",
    "lat": 2.4380891,
    "lon": -76.60261849999999
  },
  {
    "document": "1002965465",
    "zone": 2,
    "address": "Carrera3 # 12-13, julumito, obrero cementerio jardines de paz",
    "lat": 2.5045677092662535,
    "lon": -76.5775276815385
  },
  {
    "document": "1002966415",
    "zone": 49,
    "address": "Carrera 5 # 50-133, valle del ortigal, Torre 9 Apto 504 agente de control Aeropuerto Securitas",
    "lat": 2.460872369284128,
    "lon": -76.6406719431697
  },
  {
    "document": "1002967697",
    "zone": 78,
    "address": "Carrera 20 #13-16, santa fe alto, auxiliar administrativa pizza ronni",
    "lat": 2.4386897,
    "lon": -76.62113289999999
  },
  {
    "document": "1002968339",
    "zone": 42,
    "address": "Calle 6 #30-24, san jose, ",
    "lat": 2.4486961093154958,
    "lon": -76.62665888372607
  },
  {
    "document": "1002968615",
    "zone": 10,
    "address": "carrera 6 #31 Norte-83, yambitara, auxiliar clinican ",
    "lat": 2.4607158761596013,
    "lon": -76.58465704590117
  },
  {
    "document": "1002969615",
    "zone": 59,
    "address": "Calle 5 # 29 -90, la sombrilla, taller popular",
    "lat": 2.4547494,
    "lon": -76.6359239
  },
  {
    "document": "1002969958",
    "zone": 41,
    "address": "Carrera 32 # 4-43, sombrilla, secretaria del acueducto de las 3 cruzes timbio",
    "lat": 2.4513939,
    "lon": -76.626865
  },
  {
    "document": "1002970861",
    "zone": 21,
    "address": "Carrera 9 # 22n 66,  NA,  supergiros ciudad jardin escolta",
    "lat": 2.4589702,
    "lon": -76.5934382
  },
  {
    "document": "1002971156",
    "zone": 37,
    "address": "Carrera 20 #7A-17 , esmeralda, propietaria dental harmonhy",
    "lat": 2.4430284,
    "lon": -76.6183995
  },
  {
    "document": "1002971439",
    "zone": 37,
    "address": "calle 9 # 18 - 96, Esmeralda , ",
    "lat": 2.4404901,
    "lon": -76.6177818
  },
  {
    "document": "1002972047",
    "zone": 13,
    "address": "calle 31 Norte #4-126, yambitara, envientrega restaurante caserito ",
    "lat": 2.457611984088153,
    "lon": -76.58777682847155
  },
  {
    "document": "1002972384",
    "zone": 12,
    "address": "Carrera 4A #28 Norte- 00, yanaconas, materiales chirimia ",
    "lat": 2.4576693747028076,
    "lon": -76.585628788618
  },
  {
    "document": "1002972632",
    "zone": 36,
    "address": "Carrera 5ae # 9a-03, villa helena, NA",
    "lat": 2.4448143,
    "lon": -76.6147395
  },
  {
    "document": "1003036504",
    "zone": 101,
    "address": "Carrera 8 # 8-49, centro, restaurante la blanca ",
    "lat": 2.4389542,
    "lon": -76.60873529999999
  },
  {
    "document": "1003037699",
    "zone": 74,
    "address": "transversal 33 #10-04, 31 de marzo, ",
    "lat": 2.447129,
    "lon": -76.6300866
  },
  {
    "document": "1003103999",
    "zone": 42,
    "address": "carrera 29 #5A-36, el eden, ips siempre santa clara ",
    "lat": 2.4496537534071487,
    "lon": -76.62560693334768
  },
  {
    "document": "1003150688",
    "zone": 5,
    "address": "Carrera 9 #64 Norte-99, bellavista, icobandas ayudante de planta",
    "lat": 2.481490277374354,
    "lon": -76.57159566879272
  },
  {
    "document": "1003194366",
    "zone": 24,
    "address": "Transversal 9 #5-60, avenida panamericana, Placita Frente Al Terminal",
    "lat": 2.450100951912219,
    "lon": -76.60836400853786
  },
  {
    "document": "1004192741",
    "zone": 20,
    "address": "Calle 7 Norte #9-00, santa clara, toscana burguer ",
    "lat": 2.452034756269826,
    "lon": -76.60530835390091
  },
  {
    "document": "1004266785",
    "zone": 98,
    "address": "calle 8 #5-48, empedrado, asesora talento humano cencoic",
    "lat": 2.438571038279158,
    "lon": -76.60647193908702
  },
  {
    "document": "1004550142",
    "zone": 13,
    "address": "Carrera 6 Norte #26 Norte-24, los hoyos, placita de los hoyos",
    "lat": 2.457236697200549,
    "lon": -76.58953531017245
  },
  {
    "document": "1004639921",
    "zone": 11,
    "address": "carrera 6 #27 Norte-32, los hoyos, barberia my people barrio hoyos",
    "lat": 2.457803409117333,
    "lon": -76.58843049314679
  },
  {
    "document": "1004710282",
    "zone": 71,
    "address": "carrera 29 # 21 - 07, las vegas , propietario tienda la esquina ",
    "lat": 2.442836,
    "lon": -76.6298942
  },
  {
    "document": "1006108723",
    "zone": 54,
    "address": "Calle 3 # 57c-49, lomas de granada, sazon de yanet local 1 manicurista local 1",
    "lat": 2.459853,
    "lon": -76.6454451
  },
  {
    "document": "1006419812",
    "zone": 35,
    "address": "Calle 3 # 17a-16, pandiguando, NA",
    "lat": 2.446159,
    "lon": -76.61496509999999
  },
  {
    "document": "1007081440",
    "zone": 34,
    "address": "calle 3 #16-55, cadillal, vendedor ferreteria",
    "lat": 2.445517580748862,
    "lon": -76.61397457122803
  },
  {
    "document": "1007300265",
    "zone": 6,
    "address": "Carrera 17 #64A Norte-74, El uvo, ",
    "lat": 2.490212165741551,
    "lon": -76.57859809745338
  },
  {
    "document": "1007342652",
    "zone": 49,
    "address": "Manzana 30 # 2  -  03, Valle Del Ortigal, Drogueria Medi Vida",
    "lat": 2.4647849609054377,
    "lon": -76.64021294564009
  },
  {
    "document": "1007352909",
    "zone": 19,
    "address": "carrera 10 #15 Norte-79, santa clara, centro comercial ikonos recepción ",
    "lat": 2.455611818248554,
    "lon": -76.59955233854579
  },
  {
    "document": "1007432293",
    "zone": 82,
    "address": "Calle 28 #10-21, loma de la virgen, auxiliar higienista puesto de salud loma de la virgen",
    "lat": 2.4282613,
    "lon": -76.61535359999999
  },
  {
    "document": "1007477101",
    "zone": 35,
    "address": "Calle 6 # 21 -54, obando, NA",
    "lat": 2.445678,
    "lon": -76.6193097
  },
  {
    "document": "1007708332",
    "zone": 26,
    "address": "Carrera 6 #7 Norte-51, Barrio bolivar, drogueria bolivar plus vendedora",
    "lat": 2.4505260744091215,
    "lon": -76.60063839110985
  },
  {
    "document": "1007761251",
    "zone": 103,
    "address": "carrera 11A #10-81, las americas, panadero",
    "lat": 2.438713266214667,
    "lon": -76.61274702135789
  },
  {
    "document": "1007832032",
    "zone": 1,
    "address": "calle 78 Norte #10-110, parque industrial, bodega 43 dizfranco  asesor comercial viajero",
    "lat": 2.499632804420374,
    "lon": -76.56122092255009
  },
  {
    "document": "1010128230",
    "zone": 25,
    "address": "carrera 8 # 2n-98, barrio modelo, sos modelo s.o.s ",
    "lat": 2.4439304,
    "lon": -76.6070031
  },
  {
    "document": "1010234487",
    "zone": 28,
    "address": "Calle 1a # 4-50,  NA,  el cric ",
    "lat": 2.4444982,
    "lon": -76.6033573
  },
  {
    "document": "1013597275",
    "zone": 72,
    "address": "Calle 19 # 32-09, la libertad, forros carros la libertad",
    "lat": 2.4439407,
    "lon": -76.6303262
  },
  {
    "document": "1013662653",
    "zone": 77,
    "address": "Carrera 20b # 11-19, retiro bajo, NA",
    "lat": 2.4399051,
    "lon": -76.62153719999999
  },
  {
    "document": "1014179363",
    "zone": 13,
    "address": "Calle 26 Norte # 7A  - 58, Portales Del Norte Apto 1,  Sun Flower",
    "lat": 2.4589605603464313,
    "lon": -76.59170720726252
  },
  {
    "document": "1014200919",
    "zone": 19,
    "address": "calle 23 Norte #9-26, catay, cobrar a anyela kia rosero torres de milano  torre b apto 101 sanin",
    "lat": 2.4577087846113224,
    "lon": -76.5949578777578
  },
  {
    "document": "10161698838",
    "zone": 12,
    "address": "Calle 25N # 2-430,  NA,  manzana C casa 24",
    "lat": 2.4518895605306787,
    "lon": -76.58940187131715
  },
  {
    "document": "1017136827",
    "zone": 26,
    "address": "Carrera 6 # 26, barrio bolivar, San victorino local 23",
    "lat": 2.4466637779597935,
    "lon": -76.60389611285068
  },
  {
    "document": "1018454194",
    "zone": 2,
    "address": "NA,  NA, via cementerio jardines de paz maestra de cocina restaurante deli pollo",
    "lat": 2.503625267248822,
    "lon": -76.57654691250667
  },
  {
    "document": "1019059540",
    "zone": 19,
    "address": "Carrera 9 #15-59, santa clara, centro comercial santa clara local 5",
    "lat": 2.454663833888745,
    "lon": -76.59952723624247
  },
  {
    "document": "10203040",
    "zone": 29,
    "address": "calle 5 # 5 - 5, Centro, ",
    "lat": 2.4401443525623594,
    "lon": -76.6051151392521
  },
  {
    "document": "1022922902",
    "zone": 36,
    "address": "NA, NA, prestamo mazda 2 ",
    "lat": 2.4448143,
    "lon": -76.6147395
  },
  {
    "document": "1024556976",
    "zone": 34,
    "address": "Carrera 15 # 1-02, cadillal, quimpo",
    "lat": 2.4454499,
    "lon": -76.61299079999999
  },
  {
    "document": "10272692",
    "zone": 4,
    "address": "calle 69 Norte #14-28, bello horizonte, propietario la parrillada",
    "lat": 2.485638264234518,
    "lon": -76.56579813716047
  },
  {
    "document": "10290249",
    "zone": 7,
    "address": "Transversal 9 Norte #56-70, vía al Bosque,  operario licorera",
    "lat": 2.484541709515622,
    "lon": -76.58111786419214
  },
  {
    "document": "10290385",
    "zone": -1,
    "address": "Carrera 6 # 8-04, centro, domiciliario loncheria caldas ",
    "lat": 2.4387285,
    "lon": -76.6070526
  },
  {
    "document": "10290407",
    "zone": 73,
    "address": "carrera 35a # 10-17, los campos,  panaderia la 13 ",
    "lat": 2.4490884,
    "lon": -76.63148509999999
  },
  {
    "document": "10290781",
    "zone": 21,
    "address": "Carrera 8 # 20n-25, ciudad jardin, sies salud por el laboratorio",
    "lat": 2.4556813,
    "lon": -76.59504729999999
  },
  {
    "document": "10291016",
    "zone": 26,
    "address": "Carrera 6 # 10 n-142, Barrio Bolivar, hospital san jose lavanderia area de lavanderia  ",
    "lat": 2.4500624564975237,
    "lon": -76.59964084625244
  },
  {
    "document": "10291454",
    "zone": 71,
    "address": "Calle 17an # 6-08, el recuerdo, pizzeria el recuerdo ",
    "lat": 2.439742043486616,
    "lon": -76.62989738054327
  },
  {
    "document": "10291487",
    "zone": 72,
    "address": " Calle 16 33 a  138,  31 de marzo,  hospital susana lopez conductor ambulancia",
    "lat": 2.4436654040558747,
    "lon": -76.62966349700253
  },
  {
    "document": "10291859",
    "zone": 4,
    "address": "Calle 73n # 18-31, la primavera, asadero pollos primavera ",
    "lat": 2.4895007,
    "lon": -76.5653734
  },
  {
    "document": "10291918",
    "zone": 1,
    "address": "NA, urbanización la fortaleza,  pasando el cruce de Totoro ",
    "lat": 2.5126942719965966,
    "lon": -76.54251054860651
  },
  {
    "document": "10292017",
    "zone": 7,
    "address": "transversal 9A #60A Norte-45, via al bosque, efegran Motosierrista ",
    "lat": 2.4825412,
    "lon": -76.5772496
  },
  {
    "document": "10292449",
    "zone": 44,
    "address": "Calle 3 # 41-25, Maria Occidente, Burguer House",
    "lat": 2.4554514,
    "lon": -76.63370139999999
  },
  {
    "document": "10292592",
    "zone": 103,
    "address": "Carrera 13 # 8- 106, las americas, asesor comercial ",
    "lat": 2.4398854,
    "lon": -76.6137481
  },
  {
    "document": "10292906",
    "zone": 99,
    "address": "Calle 12 # 5-78, empedrado, auxiliar contable preescolar crecer juntos ",
    "lat": 2.4354095,
    "lon": -76.6080789
  },
  {
    "document": "10292986",
    "zone": 3,
    "address": "Calle 70B Norte #5A-51, la paz, valu pizza la paz",
    "lat": 2.476580399293386,
    "lon": -76.55987575650215
  },
  {
    "document": "10293139",
    "zone": 12,
    "address": "Calle 27 #2-59, yanaconas, escultor y tallador madera",
    "lat": 2.4558651520961456,
    "lon": -76.58554317174836
  },
  {
    "document": "10293193",
    "zone": 68,
    "address": "Carrera 10 calle 15 n # 59, santa clara, ikonos of 309",
    "lat": 2.436281,
    "lon": -76.6209417
  },
  {
    "document": "10293232",
    "zone": 8,
    "address": "calle 53 #9-35, el tablazo, universidad antonio nariño sede el tablazo docente de medicina veterinaria",
    "lat": 2.4751206738183735,
    "lon": -76.58201442396698
  },
  {
    "document": "10293506",
    "zone": 8,
    "address": "carrera 9 #54 Norte-61, villa del viento, vulcanizadora villa del viento enseguida del d1 ",
    "lat": 2.477822040750017,
    "lon": -76.57677890294865
  },
  {
    "document": "10294063",
    "zone": 5,
    "address": "calle 66 Norte #9-35, bello horizonte, trilladora luchin auxiliar de carga",
    "lat": 2.482350523383774,
    "lon": -76.5692045980704
  },
  {
    "document": "10294149",
    "zone": 31,
    "address": "Calle 7 # 9-15, centro, Operario urbaser",
    "lat": 2.4405281,
    "lon": -76.60942779999999
  },
  {
    "document": "10294226",
    "zone": 23,
    "address": "Carrera 7a # 21n65, ciudad jardin, iar proyectos - casa esquinera",
    "lat": 2.4536861,
    "lon": -76.597679
  },
  {
    "document": "10294294",
    "zone": 13,
    "address": "calle 27 Norte #6A-03, palace, panaderia laurita",
    "lat": 2.458198613317732,
    "lon": -76.58902300822119
  },
  {
    "document": "10294476",
    "zone": 68,
    "address": "Carrera 17A Bis #15-59, la ladera, carpintero",
    "lat": 2.4351651135206933,
    "lon": -76.61802258924614
  },
  {
    "document": "10294920",
    "zone": 34,
    "address": "Carrera 11 #30-130, Jorge eliecer gaitan, ",
    "lat": 2.4443505,
    "lon": -76.6098215
  },
  {
    "document": "10295113",
    "zone": 38,
    "address": "calle 8 #20-10, guayabal, vigilante edificio genova",
    "lat": 2.4425213180685796,
    "lon": -76.61872381712021
  },
  {
    "document": "10295587",
    "zone": 38,
    "address": "Calle 8A #21A-70, libertador , ",
    "lat": 2.44216398093645,
    "lon": -76.61941607861961
  },
  {
    "document": "10295758",
    "zone": 14,
    "address": "calle 34 Norte #12-43, atardeceres de campo bello, guarda de seguridad velseg ",
    "lat": 2.4678103698676743,
    "lon": -76.59011095762253
  },
  {
    "document": "10295804",
    "zone": 98,
    "address": "calle 10 # 4-87, Centro, centro Comercial Empedrado Digital planet local 46",
    "lat": 2.4366558,
    "lon": -76.6066043
  },
  {
    "document": "10296166",
    "zone": 74,
    "address": "Carrera 31 # 13-03, el mirador, propietario drogueria esmisalud",
    "lat": 2.4463659,
    "lon": -76.62853419999999
  },
  {
    "document": "10296218",
    "zone": 24,
    "address": "Carrera 9 # 24 an-21, Ciudad jardin, vip campanario",
    "lat": 2.4492149,
    "lon": -76.60582529999999
  },
  {
    "document": "10296410",
    "zone": 21,
    "address": "Carrera 9 # 22n-36, cuidad jardin, escolta super Giros ",
    "lat": 2.4589702,
    "lon": -76.5934382
  },
  {
    "document": "10296596",
    "zone": 98,
    "address": "Carrera 5 # 7-82, centro, Primo Cell Propietario",
    "lat": 2.438604900000001,
    "lon": -76.60612689999999
  },
  {
    "document": "10296721",
    "zone": 94,
    "address": "Calle 13A #3E-71, las ferias 2 etapa, herrero ",
    "lat": 2.43294266954992,
    "lon": -76.60213902683866
  },
  {
    "document": "10297279",
    "zone": 5,
    "address": "carrera 12 #64 Norte-260, san ignacio, transpubenza vehiculo 059",
    "lat": 2.4847165822434922,
    "lon": -76.57003339669235
  },
  {
    "document": "10297748",
    "zone": 73,
    "address": "Calle 15 # 33-34, 31 de marzo, todero champagnat",
    "lat": 2.4472196,
    "lon": -76.6314817
  },
  {
    "document": "10298089",
    "zone": 50,
    "address": "Calle 4A #52C-00, parque de las garzas, torre 3 apto 302",
    "lat": 2.4572716,
    "lon": -76.6414123
  },
  {
    "document": "10298292",
    "zone": 15,
    "address": "Carrera 9 #24-21, Ciudad jardin, jumbo area pastas y salsas ",
    "lat": 2.4592373725704912,
    "lon": -76.59389245860102
  },
  {
    "document": "10298829",
    "zone": 36,
    "address": ", El arenal ",
    "lat": 2.4448143,
    "lon": -76.6147395
  },
  {
    "document": "10299077",
    "zone": 33,
    "address": "Carrera 15A #7-18, valencia, tecnico de computadores",
    "lat": 2.442276,
    "lon": -76.6148005
  },
  {
    "document": "10299251",
    "zone": 65,
    "address": "Calle 5 # 2-40, Centro, vigilante la hermita ARN",
    "lat": 2.429417877953736,
    "lon": -76.62859741469454
  },
  {
    "document": "10299295",
    "zone": 98,
    "address": "Carrera 4 # 7-93, empedrado, vendedor agroplasticos",
    "lat": 2.4381924,
    "lon": -76.6050702
  },
  {
    "document": "10299319",
    "zone": 20,
    "address": "calle 10N # 9-60, santa clara, mecanico industrial empaques del cauca",
    "lat": 2.4532125,
    "lon": -76.60324829999999
  },
  {
    "document": "10299415",
    "zone": 16,
    "address": "calle 17A Norte #16A-18, Campamento, vigilante urbanizacion Los Laureles",
    "lat": 2.4618707453286035,
    "lon": -76.60140720506604
  },
  {
    "document": "10299548",
    "zone": 4,
    "address": "calle 70 Norte #19-39, bello horizonte, mecanico frenos y embraguez lavadero fatima",
    "lat": 2.4905301849032964,
    "lon": -76.56654387948171
  },
  {
    "document": "10299665",
    "zone": 83,
    "address": "Calle 23 #5A-41, comuneros, bodega temu",
    "lat": 2.4295643506549527,
    "lon": -76.60988748388604
  },
  {
    "document": "10299830",
    "zone": 99,
    "address": "Calle 11 # 3-79, empedrado, guarda de seguridad cristo rey ",
    "lat": 2.4350032,
    "lon": -76.6059617
  },
  {
    "document": "10299964",
    "zone": 36,
    "address": "NA,  NA,  inmobiliaria modelo ",
    "lat": 2.4448143,
    "lon": -76.6147395
  },
  {
    "document": "10300166",
    "zone": 20,
    "address": "Carrera 11 calle 4N, santa clara, aeropuerto guillermo leon valencia modulo avianca ",
    "lat": 2.4514690444735634,
    "lon": -76.60979810076947
  },
  {
    "document": "10300273",
    "zone": 3,
    "address": "calle 72A Norte #3-64, la paz, instructor strength fit",
    "lat": 2.47483553771462,
    "lon": -76.55657186881791
  },
  {
    "document": "10300348",
    "zone": 42,
    "address": "Calle 5 #34-03, san jose, propietario torno Galindez ",
    "lat": 2.450913393191426,
    "lon": -76.62886503891762
  },
  {
    "document": "10300987",
    "zone": 26,
    "address": "Carrera 6 #4 Norte-88, barrio bolivar, auxiliar de bodega surtiagro",
    "lat": 2.448428384020458,
    "lon": -76.60207617190352
  },
  {
    "document": "10301060",
    "zone": 51,
    "address": "carrera 54 #4C-39, lomas  de granada, porteria vigilante",
    "lat": 2.458634,
    "lon": -76.6430969
  },
  {
    "document": "10301208",
    "zone": 15,
    "address": "Carrera 9 #24-21, ciudad jardin, jumbo area de televisores asesor de samsung",
    "lat": 2.4593879786899624,
    "lon": -76.59378290176392
  },
  {
    "document": "10301254",
    "zone": 44,
    "address": "Carrera 41 # 2a-24, maria occidente, comidas rapidas tefy",
    "lat": 2.4565971,
    "lon": -76.63291269999999
  },
  {
    "document": "10301398",
    "zone": 103,
    "address": "Calle 9 #19-37, la esmeralda , ",
    "lat": 2.4393910890637978,
    "lon": -76.6132608819702
  },
  {
    "document": "10301420",
    "zone": 42,
    "address": "Carrera 33 # 6-42, san jose, pintor maderas",
    "lat": 2.4493703,
    "lon": -76.6288507
  },
  {
    "document": "10301447",
    "zone": 2,
    "address": "Calle 75 Norte #16-00, la aldea , fisioterapeuta agrupacion 12 12 13",
    "lat": 2.4902029,
    "lon": -76.5634818
  },
  {
    "document": "10301580",
    "zone": 42,
    "address": "carrera 31 #8-50, san jose, propietario camiones",
    "lat": 2.4469958864964023,
    "lon": -76.62825069953449
  },
  {
    "document": "10301790",
    "zone": 20,
    "address": "Carrera 10 #8-82 , santa clara, apto 101 ing tambo ",
    "lat": 2.452595599447035,
    "lon": -76.60476516829212
  },
  {
    "document": "10302312",
    "zone": 74,
    "address": "Carrera 29 # lote25, california, panaderia super break",
    "lat": 2.445066,
    "lon": -76.628092
  },
  {
    "document": "10302313",
    "zone": 38,
    "address": "Calle 5a 15 88,  barrio valencia,  propietario salchiburguer yeny",
    "lat": 2.4414415182533187,
    "lon": -76.61899534874564
  },
  {
    "document": "10302455",
    "zone": 2,
    "address": "Carrera 21 #50 Norte-100, Bosques de la alhambra, ",
    "lat": 2.4978719891484107,
    "lon": -76.57596688140026
  },
  {
    "document": "10302511",
    "zone": 42,
    "address": "Carrera 31 #5-  126, San José , propietario panaderia",
    "lat": 2.4494020533219376,
    "lon": -76.62709632735616
  },
  {
    "document": "10302903",
    "zone": 2,
    "address": "Carrera 22 #55 Norte-110, llanos de calibio, vigilante colegio san francisco de asis",
    "lat": 2.495542931490198,
    "lon": -76.5714918656807
  },
  {
    "document": "10302990",
    "zone": 39,
    "address": "carrera 28 #5A-32, santa helena, administrador compraventa la dorada",
    "lat": 2.4486494,
    "lon": -76.6248252
  },
  {
    "document": "10303223",
    "zone": 26,
    "address": "Carrera 5 #13 Norte-36, la estancia, Docente facultad de ciencias de la salud",
    "lat": 2.451007070541853,
    "lon": -76.59916341304779
  },
  {
    "document": "10303828",
    "zone": 36,
    "address": "Carrera 19 # 5-24, esmeralda, panaderia cañaveral",
    "lat": 2.4452082,
    "lon": -76.6168086
  },
  {
    "document": "10303875",
    "zone": 35,
    "address": "Calle 3 #18-16,  pandiguando,  Colegio Comfacauca Frente a Terraplaza",
    "lat": 2.4462907,
    "lon": -76.61541129999999
  },
  {
    "document": "10303940",
    "zone": 52,
    "address": "NA, Brisas de occidente, manzana 4 lote 57 chama ",
    "lat": 2.4638644333332844,
    "lon": -76.64484368517827
  },
  {
    "document": "10304005",
    "zone": 19,
    "address": "Carrera 11 #16 Norte-08, antonio nariño, local 105 agencia de viajes sky vacation ",
    "lat": 2.4556004786847194,
    "lon": -76.59928785634457
  },
  {
    "document": "10304842",
    "zone": 30,
    "address": "Carrera  9 # 5-85, centro, farmacia alternativa",
    "lat": 2.4413805,
    "lon": -76.60888469999999
  },
  {
    "document": "10304891",
    "zone": 44,
    "address": "Carrera 39 # 4-30, maria occidente, maestro de obra",
    "lat": 2.4538059,
    "lon": -76.6327026
  },
  {
    "document": "10304978",
    "zone": 34,
    "address": "Carrera 12 #3-48, cadillal, propietario tienda lunatica",
    "lat": 2.4445897,
    "lon": -76.61080559999999
  },
  {
    "document": "10305120",
    "zone": 23,
    "address": "Carrera 8 # 8n # 43, prados del norte, ingeniero de sistemas",
    "lat": 2.4525988,
    "lon": -76.60179339999999
  },
  {
    "document": "10305681",
    "zone": 36,
    "address": "NA,  NA, via timbio subestacion principal puelenje cruzando a la derecha antes del puente ",
    "lat": 2.4448143,
    "lon": -76.6147395
  },
  {
    "document": "1030575774",
    "zone": 34,
    "address": "Carrera 15 # 33n-72, campo bello, administradora tiendas a la mano",
    "lat": 2.4454759,
    "lon": -76.61298060000001
  },
  {
    "document": "10305759",
    "zone": 29,
    "address": "carrera 2 # 4-45, la pamba, coordinador de mercadeo servagro ",
    "lat": 2.4405967,
    "lon": -76.60230039999999
  },
  {
    "document": "10305772",
    "zone": 25,
    "address": "Carrera 7 # 2n-68, barrio bolivar, propietario hotel royal ",
    "lat": 2.443554,
    "lon": -76.60621259999999
  },
  {
    "document": "10305787",
    "zone": 94,
    "address": "Calle 13 #4-108, alfonso lopez, GIO soluciones segundo piso ",
    "lat": 2.4329567,
    "lon": -76.6013104
  },
  {
    "document": "10305901",
    "zone": 8,
    "address": "Calle 52 #15-21, villa del viento, condominio capilla 52 apto 107",
    "lat": 2.4795449748639804,
    "lon": -76.58244612070216
  },
  {
    "document": "10306103",
    "zone": 4,
    "address": "carrera 9 #71 Norte-60, sena alto cauca, ",
    "lat": 2.482760344048331,
    "lon": -76.5626328965502
  },
  {
    "document": "10306209",
    "zone": 10,
    "address": "Carrera 6 #30 Norte-79, la ximena, runner ",
    "lat": 2.460906791243083,
    "lon": -76.58438361541782
  },
  {
    "document": "10306222",
    "zone": 20,
    "address": "Carrera 11 #12 Norte-75, santa clara, tecnico agroambiental minga ips",
    "lat": 2.454699494074698,
    "lon": -76.60163485628483
  },
  {
    "document": "10306241",
    "zone": 7,
    "address": "transversal 9 Norte #56 Norte-14, via al bosque, claros del bosque bloque 10 casa 10 inmobiliaria",
    "lat": 2.4849245475636987,
    "lon": -76.58113827299621
  },
  {
    "document": "10306245",
    "zone": 44,
    "address": "Carrera 39 con 1bis, maria occidente, conjunto belmonte oficios varios",
    "lat": 2.4536545,
    "lon": -76.6326864
  },
  {
    "document": "10306472",
    "zone": 21,
    "address": "NA, NA,  bodega papas margarita al lado colegio franciscanas",
    "lat": 2.452868,
    "lon": -76.5943671
  },
  {
    "document": "10306731",
    "zone": 16,
    "address": "carrera 15 #21 Norte-127, Campamento, villa olimpica comfacauca unidad 3 gym",
    "lat": 2.4604685867198284,
    "lon": -76.59987478962185
  },
  {
    "document": "10306738",
    "zone": 4,
    "address": "Carrera 9 # 66n18, bellohorizonte, pollos bucanero alto cauca",
    "lat": 2.4848759829833367,
    "lon": -76.56400425828531
  },
  {
    "document": "10306766",
    "zone": 9,
    "address": "calle 66 #03-95, vereda gonzales, tecnico mantenimiento bicicletas",
    "lat": 2.475480545530305,
    "lon": -76.56611750859265
  },
  {
    "document": "10306820",
    "zone": 36,
    "address": "NA,  NA,  acobalador rines calle 4",
    "lat": 2.4448143,
    "lon": -76.6147395
  },
  {
    "document": "10306901",
    "zone": 20,
    "address": "Carrera 11 # 13n-51, santa clara, aux enfermeria ",
    "lat": 2.4548692,
    "lon": -76.601506
  },
  {
    "document": "10307154",
    "zone": 57,
    "address": "Calle 5 #50-157, los jazmines, mecanico taller motos motoro",
    "lat": 2.4550570947873323,
    "lon": -76.64056095311707
  },
  {
    "document": "10307241",
    "zone": 24,
    "address": "Carrera 11 #1n-50, modelo, bodega interservicios mensajero",
    "lat": 2.4468276,
    "lon": -76.6087053
  },
  {
    "document": "10307243",
    "zone": 29,
    "address": "Carrera 1 #00-55, la pamba, cosmitet por los kingos",
    "lat": 2.440381799029373,
    "lon": -76.60052463412285
  },
  {
    "document": "10307345",
    "zone": 21,
    "address": "carrera 6 #20 Norte-72, ciudad jardin, vendedor construnorte ",
    "lat": 2.4539987490254056,
    "lon": -76.5936921363098
  },
  {
    "document": "10307665",
    "zone": 3,
    "address": "calle 72A Norte #5-70, la paz, maestro construccion",
    "lat": 2.4766561584408273,
    "lon": -76.55815515330353
  },
  {
    "document": "10308093",
    "zone": 9,
    "address": "Calle 2n # 6a-54, NA, centro recreativo pisoje comfacauca auxiliar de servicios",
    "lat": 2.4755533601734263,
    "lon": -76.57123228923972
  },
  {
    "document": "10308134",
    "zone": 8,
    "address": "calle 51 Norte #11-78, villa del viento, antigua 2 casa 25 instructor sena ",
    "lat": 2.4780981,
    "lon": -76.5809878
  },
  {
    "document": "10308330",
    "zone": 7,
    "address": "transversal 9 #57 Norte-648 casa 2, via al bosque, bicicletas",
    "lat": 2.4838167080854623,
    "lon": -76.58121881331293
  },
  {
    "document": "10308703",
    "zone": 84,
    "address": "Calle 18A #4-04, comuneros, parque industrial manzana f bodega colgas supervisor de planta",
    "lat": 2.431210356634708,
    "lon": -76.60816765139066
  },
  {
    "document": "1031143331",
    "zone": 33,
    "address": "Carrera 11 # 5-40, barrio valencia,  admnistrativa mundo mujer",
    "lat": 2.4428877,
    "lon": -76.6112305
  },
  {
    "document": "10317202",
    "zone": 61,
    "address": "NA,  NA, parcelacion la fortaleza altos de la colina ",
    "lat": 2.4514287076279837,
    "lon": -76.63987857519173
  },
  {
    "document": "1032456445",
    "zone": 20,
    "address": "Calle 7n # 11-05, urbanizacion alcala casa 13, inversiones y construcciones hd ",
    "lat": 2.4530064,
    "lon": -76.60610319999999
  },
  {
    "document": "1033785378",
    "zone": 22,
    "address": "Carrera 2 #, 3n127, tulcan",
    "lat": 2.447153796534504,
    "lon": -76.59805476184138
  },
  {
    "document": "10350070",
    "zone": 99,
    "address": "Carrera 6 # 12-51, empedrado, escolta oficios varios granero uno a",
    "lat": 2.4346485,
    "lon": -76.6083446
  },
  {
    "document": "1036400313",
    "zone": 98,
    "address": "Calle 7 #4-15, centro, el papá",
    "lat": 2.4390108,
    "lon": -76.6050868
  },
  {
    "document": "1036602766",
    "zone": 13,
    "address": "carrera 4B #26B Norte-23, villa docente,  tienda deportiva",
    "lat": 2.456428206109737,
    "lon": -76.58940389058829
  },
  {
    "document": "10497724",
    "zone": 13,
    "address": "carrera 6 #25 Norte-06, los hoyos, carpinteria javier palace ebanista",
    "lat": 2.4573150539007775,
    "lon": -76.58919280255401
  },
  {
    "document": "10523819",
    "zone": 103,
    "address": "carrera 11 #10-84, las americas, fiat uno way 2022 KPW469",
    "lat": 2.4382218327438334,
    "lon": -76.6123010466337
  },
  {
    "document": "10525367",
    "zone": 14,
    "address": "NA,  campobello,  restaurante ana victoria frente a torre molinos ",
    "lat": 2.465066332268266,
    "lon": -76.58838495612144
  },
  {
    "document": "10526094",
    "zone": 61,
    "address": "Carrera 39 # 1 abis31, Arrayanes De Occidente Casa 5, embobinados",
    "lat": 2.451360773848148,
    "lon": -76.64042863925437
  },
  {
    "document": "10529883",
    "zone": 13,
    "address": "carrera 6 #26 Norte-61,  palace,  carpinteria palace ",
    "lat": 2.4573635337478805,
    "lon": -76.5895557441442
  },
  {
    "document": "10529936",
    "zone": 37,
    "address": "Calle 8 # 17-54, la esmeralda, coordinador de construccion",
    "lat": 2.4418482,
    "lon": -76.6160812
  },
  {
    "document": "10530008",
    "zone": 101,
    "address": "carrera 7 # 8-31, centro, director ventas IBG",
    "lat": 2.4387944,
    "lon": -76.6078385
  },
  {
    "document": "10532789",
    "zone": 4,
    "address": "calle 68 Norte #19-76, bello horizonte, uber QET193",
    "lat": 2.4901362487432825,
    "lon": -76.5678961858367
  },
  {
    "document": "10533131",
    "zone": 6,
    "address": "calle 57 #18-06, capri, propietario panaderia",
    "lat": 2.490515455259507,
    "lon": -76.57887518405914
  },
  {
    "document": "10533166",
    "zone": 5,
    "address": "Calle 65 Norte # 19  - 80, Bellohorizonte ,  Casa De Puerta Verde",
    "lat": 2.4897075328555616,
    "lon": -76.56933825463057
  },
  {
    "document": "10534471",
    "zone": 80,
    "address": "Carrera 12A #13A-03, limonar, ",
    "lat": 2.435642878201879,
    "lon": -76.61445982660247
  },
  {
    "document": "10534902",
    "zone": 21,
    "address": "Calle 20n 6 - 60,  ciudad jardin,  2 piso pekos bill",
    "lat": 2.4538165,
    "lon": -76.5943726
  },
  {
    "document": "10536146",
    "zone": 30,
    "address": "Calle 5 # 7-90, centro, NA",
    "lat": 2.4420064,
    "lon": -76.60753319999999
  },
  {
    "document": "10536263",
    "zone": 35,
    "address": "Calle 4 # 20 -80, pandiguando, floristeria ",
    "lat": 2.4469328,
    "lon": -76.6178541
  },
  {
    "document": "10536476",
    "zone": 11,
    "address": "calle 29 Norte #6B-20, alicante, ingeniero civil",
    "lat": 2.4602381535405766,
    "lon": -76.58667673698402
  },
  {
    "document": "10537241",
    "zone": 34,
    "address": "Calle 5 15-08, Esmeralda,  ferreteria españa",
    "lat": 2.4443157,
    "lon": -76.61344299999999
  },
  {
    "document": "1053793703",
    "zone": 12,
    "address": "calle 25 Norte #2E-4 15 , colinas, manzana b",
    "lat": 2.4507416221538905,
    "lon": -76.58899593215587
  },
  {
    "document": "10539244",
    "zone": 30,
    "address": "Calle 4 # 9-13, centro, oficina registro calificador",
    "lat": 2.4430594,
    "lon": -76.60850909999999
  },
  {
    "document": "10540266",
    "zone": 39,
    "address": "carrera 28 #5A-58, santa helena, mensajero domina ",
    "lat": 2.4483748755377577,
    "lon": -76.62481185611546
  },
  {
    "document": "10540969",
    "zone": 24,
    "address": "Calle 2n #6-54, modelo, bodeguero suministros comfacauca oficina de servicio de apoyo",
    "lat": 2.4464308,
    "lon": -76.6062592
  },
  {
    "document": "10542590",
    "zone": 35,
    "address": "Carrera 23 # 6a-15, jose maria obando, acertemos  ",
    "lat": 2.4456596,
    "lon": -76.62089929999999
  },
  {
    "document": "10542856",
    "zone": 86,
    "address": "Calle 21 # 4-04, comuneros, marroquineria",
    "lat": 2.4287337,
    "lon": -76.6052814
  },
  {
    "document": "10544359",
    "zone": 8,
    "address": "calle 57 #10-46,  villa del viento,  casa 26villa del viento",
    "lat": 2.4800670880759546,
    "lon": -76.57652375512413
  },
  {
    "document": "10544567",
    "zone": 36,
    "address": "NA, atardeceres de la pradera,  casa 106d ingeniero agronomo",
    "lat": 2.4448143,
    "lon": -76.6147395
  },
  {
    "document": "10546430",
    "zone": 4,
    "address": "calle 70 Norte #12-68, bello horizonte, uber cwq 430",
    "lat": 2.4849822,
    "lon": -76.564686
  },
  {
    "document": "10546446",
    "zone": 8,
    "address": "Calle 53 #11-58, villa del viento, casa 58 profesor baloncesto sena alto cauca",
    "lat": 2.479000363866016,
    "lon": -76.57953238125505
  },
  {
    "document": "10546915",
    "zone": 29,
    "address": "Calle 3 # 4-29, centro, conductor acueducto",
    "lat": 2.4424434,
    "lon": -76.6038913
  },
  {
    "document": "10547358",
    "zone": 33,
    "address": "calle 5 # 5 - 5, Monte Mayor, Casa G3",
    "lat": 2.443318742341988,
    "lon": -76.61359847889784
  },
  {
    "document": "10547850",
    "zone": 20,
    "address": "Calle 10n #9n-35, santa clara, publicista lebs publicidad",
    "lat": 2.453009,
    "lon": -76.60342399999999
  },
  {
    "document": "10548560",
    "zone": 30,
    "address": "Calle 6 # 9-22, centro, propietario emporio sport",
    "lat": 2.4413995,
    "lon": -76.6091569
  },
  {
    "document": "10548603",
    "zone": 23,
    "address": "Calle 8 #8 Norte-09, barrio belalcazar, propiertario bendita parrilla",
    "lat": 2.4514603941525897,
    "lon": -76.6048238935391
  },
  {
    "document": "10548609",
    "zone": 5,
    "address": "Calle 66 #11-52, bellohorizonte, ",
    "lat": 2.4841498,
    "lon": -76.56879529999999
  },
  {
    "document": "10549959",
    "zone": 3,
    "address": "NA, barrio sinai lote 108, propietario ferreteria sinai",
    "lat": 2.467688018062947,
    "lon": -76.54707782107414
  },
  {
    "document": "10565938",
    "zone": 35,
    "address": "Calle 4 #17-38, pandiguando, conductor transtambo buseta SHS422",
    "lat": 2.44551,
    "lon": -76.61480540000001
  },
  {
    "document": "10585282",
    "zone": 70,
    "address": "Carrera 28 # 15-08, solidaridad, NA ",
    "lat": 2.4437255,
    "lon": -76.62750369999999
  },
  {
    "document": "1058546151",
    "zone": 14,
    "address": "Carrera 12 #34 Norte-204, campo bello, la rivera contratista de acabados",
    "lat": 2.4689760481888596,
    "lon": -76.5886116027832
  },
  {
    "document": "1058546497",
    "zone": 23,
    "address": "Calle 9N # 6A-92, belalcazar, bike planet",
    "lat": 2.4498533,
    "lon": -76.6032144
  },
  {
    "document": "1058670996",
    "zone": 4,
    "address": "carrera 10 #70A Norte-33, bellohorizonte, electricas medellin",
    "lat": 2.4830882,
    "lon": -76.5639486
  },
  {
    "document": "105878615",
    "zone": 5,
    "address": "carrera 20 #60 Norte-03,  conjunto monte luna,  panaderia Gabi",
    "lat": 2.490012198975762,
    "lon": -76.57205443877355
  },
  {
    "document": "10587866391",
    "zone": 39,
    "address": "calle 8 # 27B - 54, Santa Helena , ",
    "lat": 2.446709,
    "lon": -76.6252624
  },
  {
    "document": "1058789143",
    "zone": 101,
    "address": "carrera 9 # 10 - 41, san camilo, auxiliar de producción ",
    "lat": 2.4376325,
    "lon": -76.610345
  },
  {
    "document": "1058932430",
    "zone": 45,
    "address": "Calle 2 # 39-26, Maria occidente, tienda mascotas",
    "lat": 2.4552364,
    "lon": -76.6316228
  },
  {
    "document": "1058963193",
    "zone": 39,
    "address": "Calle 6 #23-39, Obando, ",
    "lat": 2.4461996,
    "lon": -76.6212585
  },
  {
    "document": "1058964764",
    "zone": 45,
    "address": "Carrera 39 # 1abis-31, maria occidente, propietaria sanpri local3 condominio belmonte ",
    "lat": 2.4560929,
    "lon": -76.630207
  },
  {
    "document": "1058970471",
    "zone": 3,
    "address": "calle 73B Norte #1-52, villa del norte, piso 2  asistente de ventas d1 de la arboleda",
    "lat": 2.4750162670861107,
    "lon": -76.5547042588725
  },
  {
    "document": "1058972600",
    "zone": 20,
    "address": "calle 12 #10-29, santa clara, vigilante sanitas",
    "lat": 2.4547696000595804,
    "lon": -76.60207924536063
  },
  {
    "document": "1058974291",
    "zone": 34,
    "address": "Carrera 15 # 1-05, cadillal, quimpo",
    "lat": 2.4454488,
    "lon": -76.61299129999999
  },
  {
    "document": "1058976257",
    "zone": 97,
    "address": "Carrera 1 # 17-36, los sauces, chavez burguer",
    "lat": 2.4380891,
    "lon": -76.60261849999999
  },
  {
    "document": "1059236934",
    "zone": 23,
    "address": "clle 4N 8N-21 frijol verde restaurante prados del norte , NA, NA",
    "lat": 2.4519214,
    "lon": -76.6037632
  },
  {
    "document": "1059335123",
    "zone": 97,
    "address": "Carrera 1 # 17-36, los sauces, NA",
    "lat": 2.4380891,
    "lon": -76.60261849999999
  },
  {
    "document": "1059364091",
    "zone": 37,
    "address": "Carrera 19 #8A-17, esmeralda, ",
    "lat": 2.441334036836786,
    "lon": -76.61780841029727
  },
  {
    "document": "105947213",
    "zone": 42,
    "address": "Carrera 31 # 8-60, san jose, vulcanizadora santa clara toscana",
    "lat": 2.4469656,
    "lon": -76.6283475
  },
  {
    "document": "105949497",
    "zone": 28,
    "address": "Carrera 4 # 2-80, centro, docente sena centro centro de comercios",
    "lat": 2.4447533,
    "lon": -76.6026722
  },
  {
    "document": "1059606042",
    "zone": 22,
    "address": "NA, NA, vereda pomona parte alta casa 74 restaurante celeste burguer por la entrada del lavadero",
    "lat": 2.4469599770453034,
    "lon": -76.59626707617979
  },
  {
    "document": "1059811419",
    "zone": 29,
    "address": "Calle 5b # 2-14, loma de cartagena, servicio geologico ",
    "lat": 2.4392238,
    "lon": -76.6026815
  },
  {
    "document": "1059902433",
    "zone": 55,
    "address": "Calle 3b #57-01,  lomas de granada,  cajera market express",
    "lat": 2.4593865,
    "lon": -76.644612
  },
  {
    "document": "1059902931",
    "zone": 36,
    "address": "NA,  NA, lote 366 eco barrio sinai Puesto de arepas debajo del puente enfrente del terminal",
    "lat": 2.4448143,
    "lon": -76.6147395
  },
  {
    "document": "1059907140",
    "zone": 23,
    "address": "Carrera 6 # 16N 19, el recuerdo,  peluqueria andres rengifo dueño",
    "lat": 2.4519479,
    "lon": -76.5986367
  },
  {
    "document": "1059909471",
    "zone": 36,
    "address": "NA,  NA, lote 35 barrio tequendama frente al salon comunal",
    "lat": 2.4448143,
    "lon": -76.6147395
  },
  {
    "document": "1059915734",
    "zone": 33,
    "address": "Calle 5a #15-74, barrio valencia, drogueria servifarma express",
    "lat": 2.4437757,
    "lon": -76.614564
  },
  {
    "document": "1060237494",
    "zone": 33,
    "address": "Calle 8 # 11-24, Benito Juarez, Helados Rickys",
    "lat": 2.4405111,
    "lon": -76.6118386
  },
  {
    "document": "1060797544",
    "zone": 24,
    "address": "Carrera 7A # 9N  -  12, El Recuerdo ",
    "lat": 2.450825852083594,
    "lon": -76.60671751946211
  },
  {
    "document": "1060798446",
    "zone": 6,
    "address": "NA,  NA, variante norte propietaria restaurante sazon de lucre frente torres de milano pinares de la variente",
    "lat": 2.488880852204777,
    "lon": -76.58608764410019
  },
  {
    "document": "1060801044",
    "zone": 19,
    "address": "Carrera 10 # 15n-59, santa clara, vigilante Ikonos",
    "lat": 2.4554865,
    "lon": -76.6001758
  },
  {
    "document": "1060802209",
    "zone": 26,
    "address": "Carrera. 6 # 10N-142,  NA,  hospital universitario san jose urgencias adultos coordinacion piso 4 ",
    "lat": 2.4500636,
    "lon": -76.5997707
  },
  {
    "document": "1060867321",
    "zone": 34,
    "address": "Calle 3A #15-52, Cadillal, ferreteria manos en la obra ",
    "lat": 2.4454591,
    "lon": -76.613529
  },
  {
    "document": "1060869866",
    "zone": 101,
    "address": "Calle 11 # 7 36,  Empedrado, Alexa Dulces Y Detalles",
    "lat": 2.4368276,
    "lon": -76.60907089999999
  },
  {
    "document": "1060870324",
    "zone": 30,
    "address": "Calle 5 # 9-10, centro, indeportes cauca ",
    "lat": 2.442347,
    "lon": -76.60866469999999
  },
  {
    "document": "1060871665",
    "zone": 23,
    "address": "Carrera 7a #21n-51, ciudad jardin, NA",
    "lat": 2.4536861,
    "lon": -76.597679
  },
  {
    "document": "1060871725",
    "zone": 34,
    "address": "Carrera 11 # 4-37, cadillal, heimdall segurity supervisor  ",
    "lat": 2.4434101,
    "lon": -76.61034289999999
  },
  {
    "document": "1060872847",
    "zone": 35,
    "address": "Calle 4 # 17-43,  pandiguando,  vendedora tienda escudeto",
    "lat": 2.4453624,
    "lon": -76.6149423
  },
  {
    "document": "1060873162",
    "zone": 26,
    "address": "Carrera 6 # 10n-142, barrio bolivar, hospital san jose",
    "lat": 2.4500636,
    "lon": -76.5997707
  },
  {
    "document": "1060873169",
    "zone": 35,
    "address": "Calle 3 #18-34, pandiguando, propietaria restaurante arroz chaufa",
    "lat": 2.4464176,
    "lon": -76.6156345
  },
  {
    "document": "1060873379",
    "zone": 35,
    "address": "Carrera 23 # 2a -02, pandiguando, rico gomez abogado y secretario ",
    "lat": 2.4491717,
    "lon": -76.61938409999999
  },
  {
    "document": "1060873633",
    "zone": 13,
    "address": "carrera 6 #26C Norte-24, los hoyos, cajera placita hoyos ",
    "lat": 2.4572002217170614,
    "lon": -76.58953571808524
  },
  {
    "document": "1060875408",
    "zone": 36,
    "address": "NA,  NA,  quilcase tambo cauca medico veterinario ",
    "lat": 2.4448143,
    "lon": -76.6147395
  },
  {
    "document": "1060989625",
    "zone": 11,
    "address": "Calle 27an bis # 1-32, pinar de la vega, NA",
    "lat": 2.4584141,
    "lon": -76.5883919
  },
  {
    "document": "1061016261",
    "zone": 6,
    "address": "Carrera 17 #61n-16, la arboleda, olimpica auxiliar control perdidos",
    "lat": 2.4870416,
    "lon": -76.57598220000001
  },
  {
    "document": "1061020541",
    "zone": 29,
    "address": "Carrera 3 # 04-28, La Pamba, Biomedica Consultorio Medico",
    "lat": 2.440706,
    "lon": -76.60333709999999
  },
  {
    "document": "10610610",
    "zone": 2,
    "address": "calle 78n # 19-100, la aldea, fisioterapeuta",
    "lat": 2.4944398,
    "lon": -76.5656845
  },
  {
    "document": "1061219305",
    "zone": 9,
    "address": "carrera 5 #55 Norte-54, pisoje, embotelladora fuente vida pisoje ",
    "lat": 2.4741415620974943,
    "lon": -76.57271098721762
  },
  {
    "document": "1061219673",
    "zone": 99,
    "address": "Carrera 1 #10-80, Santa Ines , Apartamento 401",
    "lat": 2.435077171120089,
    "lon": -76.60452246665955
  },
  {
    "document": "1061225868",
    "zone": 42,
    "address": "calle 5C #30-61, el eden, Kikos Parrilla Bellavista ",
    "lat": 2.4496861,
    "lon": -76.6264821
  },
  {
    "document": "1061534330",
    "zone": 26,
    "address": "Calle 2n # 5-35, barrio bolivar, vendedor modas j&l",
    "lat": 2.4460991,
    "lon": -76.6041265
  },
  {
    "document": "1061536275",
    "zone": 22,
    "address": "Carrera 18 Norte # 4  - 17, Edifici Ciidad Balnca Recepción Poso 2, Recepcionista ",
    "lat": 2.4512261405122375,
    "lon": -76.5972912311554
  },
  {
    "document": "1061537110",
    "zone": 100,
    "address": "Calle 16 # 1e-15, la floresta sur, tienda frente al puesto de salud",
    "lat": 2.4326078,
    "lon": -76.60669759999999
  },
  {
    "document": "1061538579",
    "zone": 6,
    "address": "calle 62 Norte #15-22 , santiago de cali 2piso, san tiago de cali",
    "lat": 2.487730404967729,
    "lon": -76.57377197859779
  },
  {
    "document": "1061539904",
    "zone": 8,
    "address": "calle 53 Norte #11-58, villa del viento, villa del viento",
    "lat": 2.4782270840971843,
    "lon": -76.5794397490738
  },
  {
    "document": "1061540844",
    "zone": 104,
    "address": "Carrera 17 #12 -71, las americas, jefe de bodega cementos cauca",
    "lat": 2.4377158,
    "lon": -76.6157472
  },
  {
    "document": "1061593191",
    "zone": 35,
    "address": "Calle 4 #20-38, PANDIGUANDO, ",
    "lat": 2.446645033228111,
    "lon": -76.61754682883607
  },
  {
    "document": "1061598542",
    "zone": 2,
    "address": "Carrera 9# 76n-19, via panamericana, asesor distribuidora la superior bodega 3",
    "lat": 2.490268,
    "lon": -76.559333
  },
  {
    "document": "1061599882",
    "zone": 13,
    "address": "carrera 6 #26C Norte-24, los hoyos, cajera placita los hoyos ",
    "lat": 2.457198869163461,
    "lon": -76.58954629610805
  },
  {
    "document": "1061601234",
    "zone": 34,
    "address": "Carrera 11 #4-37,  cadillal,  heimdall security aux almacen y compras",
    "lat": 2.4434101,
    "lon": -76.61034289999999
  },
  {
    "document": "10616686607",
    "zone": 36,
    "address": "NA,  NA,  hospital  san José uci pediatría ",
    "lat": 2.4448143,
    "lon": -76.6147395
  },
  {
    "document": "1061684534",
    "zone": 20,
    "address": "Transversal 9 # 4a-38, santa clara, vigilante parqueadero principal terminal",
    "lat": 2.451286687961874,
    "lon": -76.60952285070125
  },
  {
    "document": "1061685065",
    "zone": 102,
    "address": "Carrera 9 # 18n-237, catay, restaurante tipicas",
    "lat": 2.438598,
    "lon": -76.6102106
  },
  {
    "document": "1061685218",
    "zone": 35,
    "address": "Carrera 21b # 2-91, pandiguando, salome lashes ",
    "lat": 2.448317,
    "lon": -76.61839169999999
  },
  {
    "document": "1061685370",
    "zone": 29,
    "address": "Calle 4 # 5-21, centro, alcaldia segundo piso juridica ",
    "lat": 2.4418722,
    "lon": -76.605001
  },
  {
    "document": "1061685825",
    "zone": 19,
    "address": "NA,  NA,  ikonos centro comercial ",
    "lat": 2.4552189132178666,
    "lon": -76.60052424076488
  },
  {
    "document": "1061685945",
    "zone": 3,
    "address": "calle 70B Norte #5-35, la paz, mega cel propietario",
    "lat": 2.475651182702272,
    "lon": -76.55915923211796
  },
  {
    "document": "1061686151",
    "zone": 34,
    "address": "Calle 4 # 13-15, cadillal, propietario avinox",
    "lat": 2.4441177,
    "lon": -76.6119302
  },
  {
    "document": "1061686393",
    "zone": 40,
    "address": "Calle 4 # 25-05, camilo torres, esquina frente a el cementerio central restaurante ",
    "lat": 2.4488831,
    "lon": -76.6214169
  },
  {
    "document": "1061686620",
    "zone": 10,
    "address": "calle 42 Norte #4-75, la ximena, vigilante torres del campestre",
    "lat": 2.466419593705898,
    "lon": -76.5791004896164
  },
  {
    "document": "1061686702",
    "zone": 61,
    "address": "NA,  NA, Finca las chozas Por la entrada de bosque de occidente via a la trituradora",
    "lat": 2.4525975043131667,
    "lon": -76.64116144180298
  },
  {
    "document": "1061687024",
    "zone": 29,
    "address": "Calle 6 # 4-40, centro, admnistradora telas",
    "lat": 2.4400153,
    "lon": -76.6048508
  },
  {
    "document": "1061687151",
    "zone": 13,
    "address": "carrera 6 #25 Norte-32, los hoyos, animal veterinaria los hoyos ",
    "lat": 2.4566129168013497,
    "lon": -76.59099434467127
  },
  {
    "document": "1061687399",
    "zone": 39,
    "address": "Carrera 27b # 8a-03, santa helena, restaurante santa helena ",
    "lat": 2.4459407,
    "lon": -76.6250878
  },
  {
    "document": "1061687508",
    "zone": 100,
    "address": "Carrera 3 # 15-53, cadillal, techos y acabados Cadillal frente al colegio san rafael",
    "lat": 2.4326167,
    "lon": -76.6062944
  },
  {
    "document": "1061687519",
    "zone": 98,
    "address": "Calle  10 5-66, empedrado, propietaria restaurante",
    "lat": 2.4371368,
    "lon": -76.6072889
  },
  {
    "document": "1061688013",
    "zone": 5,
    "address": "carrera 14 #64 Norte-128, san ignacio, admnistradora market al lado de super helados",
    "lat": 2.4864262641386548,
    "lon": -76.57093986868858
  },
  {
    "document": "1061688072",
    "zone": 9,
    "address": "Calle 65 #03-94, vereda gonzales, NA",
    "lat": 2.4756477021607646,
    "lon": -76.56634549504687
  },
  {
    "document": "1061688204",
    "zone": 68,
    "address": "Calle 15 # 17a-196, la ladera, hospital susana lopez uci neonatal ",
    "lat": 2.4362633,
    "lon": -76.6209636
  },
  {
    "document": "1061688404",
    "zone": 21,
    "address": "Carrera 9 # 24n-109, ciudad jardin, campanario local 124 bata",
    "lat": 2.4588909,
    "lon": -76.593357
  },
  {
    "document": "1061688452",
    "zone": 38,
    "address": "calle 8B Bis #20A-84, minuto de dios, auxiliar administrativa delco de servicios",
    "lat": 2.4417454180134626,
    "lon": -76.61980916605128
  },
  {
    "document": "1061688478",
    "zone": 6,
    "address": "Carrera 17 #48 Norte-18, catay, entrepinos casa 50 esperanza y salud",
    "lat": 2.4900759884080417,
    "lon": -76.58454537391663
  },
  {
    "document": "1061688755",
    "zone": 27,
    "address": "Carrera 2a # 3n-111,  NA,  universidad del cauca",
    "lat": 2.4459732,
    "lon": -76.60055129999999
  },
  {
    "document": "1061689067",
    "zone": 24,
    "address": "Carrera 9# 2n-32, barrio modelo, grupo consultor ",
    "lat": 2.4470047,
    "lon": -76.6070912
  },
  {
    "document": "1061689541",
    "zone": 38,
    "address": "Carrera 22 #7-118, Jose maria obando, ",
    "lat": 2.4446781,
    "lon": -76.6206196
  },
  {
    "document": "1061689811",
    "zone": 15,
    "address": "Carrera 9 #24-21, ciudad jardin, arturo calle campanario auxiliar de piso ",
    "lat": 2.4593879786899624,
    "lon": -76.59378290176392
  },
  {
    "document": "1061689894",
    "zone": 98,
    "address": "Calle 10 # 4-87, centro, comercial el empedrado idema local 45 celulares",
    "lat": 2.4366558,
    "lon": -76.6066043
  },
  {
    "document": "1061689928",
    "zone": 11,
    "address": "Carrera 6 #33-02, yambitara, mesera maxipan yambitara",
    "lat": 2.458312915157033,
    "lon": -76.58760400065992
  },
  {
    "document": "1061689934",
    "zone": 101,
    "address": "Carrera 8 # 12-118, empedrado, ciclo lucy empedrado",
    "lat": 2.4350643,
    "lon": -76.6103888
  },
  {
    "document": "1061690224",
    "zone": 79,
    "address": "Carrera 17 con calle 12, santa clara, esquina alborautos",
    "lat": 2.438054,
    "lon": -76.61620839999999
  },
  {
    "document": "1061690738",
    "zone": 70,
    "address": "Calle 17 # 28-23, el mirador, la conquista por el mirador",
    "lat": 2.4434489,
    "lon": -76.6284713
  },
  {
    "document": "1061691766",
    "zone": 1,
    "address": "calle 78 #10A-110, rio blanco, parque industrial bodega 4 manzana D asmet salud servicios generales",
    "lat": 2.500892789180677,
    "lon": -76.55928092964156
  },
  {
    "document": "1061691768",
    "zone": 101,
    "address": "Calle 9 # 7-41, centro, pan timbiano",
    "lat": 2.4381992,
    "lon": -76.6085186
  },
  {
    "document": "1061691844",
    "zone": 18,
    "address": "Carrera 7 # 3-50, centro, suranericana primer piso",
    "lat": 2.4580213114051817,
    "lon": -76.60544246435165
  },
  {
    "document": "1061691853",
    "zone": 73,
    "address": "Calle 10 # 36-16, los campos, puesto salud la floresta los sauces",
    "lat": 2.4504876,
    "lon": -76.6323024
  },
  {
    "document": "1061692016",
    "zone": 27,
    "address": "Carrera 2a # 3n-111, tulcan, vigilante facultad educacion y facultad las guacas",
    "lat": 2.4459732,
    "lon": -76.60055129999999
  },
  {
    "document": "1061692226",
    "zone": 79,
    "address": "Carrera 27B #7A-12, Santa Helena , ",
    "lat": 2.4384322,
    "lon": -76.6161299
  },
  {
    "document": "106169226",
    "zone": 102,
    "address": "Carrera 9A #15B-10, Valparaiso, ",
    "lat": 2.4379828,
    "lon": -76.6105178
  },
  {
    "document": "1061692307",
    "zone": 24,
    "address": "Transversal 9 #56 Norte-78, via al bosque, conjunto asturias casa b4",
    "lat": 2.4501224,
    "lon": -76.6083596
  },
  {
    "document": "1061692375",
    "zone": 26,
    "address": "Carrera 6 # 10n-142, barrio bolivar, hospital san José servicios generales ",
    "lat": 2.4500636,
    "lon": -76.5997707
  },
  {
    "document": "1061692814",
    "zone": 20,
    "address": "carrera 10 #9 Norte-41, santa clara, ips mutualsanta clara ",
    "lat": 2.4531030036989523,
    "lon": -76.60384696341654
  },
  {
    "document": "1061693082",
    "zone": 21,
    "address": "Carrera 9 # 24an-21, ciudad jardin, compu store  centro comercial el empedrado local 9",
    "lat": 2.4582831,
    "lon": -76.5940323
  },
  {
    "document": "1061693134",
    "zone": 26,
    "address": "Carrera 6a # 5n-29, la estacion, local 110-111 b-bolivar",
    "lat": 2.4504558,
    "lon": -76.6013672
  },
  {
    "document": "1061693412",
    "zone": 34,
    "address": "Calle 2 Norte #14-36, Cadillal, ",
    "lat": 2.4468707,
    "lon": -76.612402
  },
  {
    "document": "1061693639",
    "zone": 72,
    "address": "Carrera 33A #17-75, 31 de marzo, conductor piago",
    "lat": 2.4449422409054407,
    "lon": -76.63057161409684
  },
  {
    "document": "1061693927",
    "zone": 12,
    "address": "Calle 27cn 2 26,  villa del prado,  bella donna salon de masajes ",
    "lat": 2.4569297658880442,
    "lon": -76.58533051887368
  },
  {
    "document": "1061694076",
    "zone": 42,
    "address": "Calle 6 #29-16,  san jose,  Camioneta",
    "lat": 2.448592018679556,
    "lon": -76.62625949626305
  },
  {
    "document": "1061694176",
    "zone": 29,
    "address": "Carrera 5 # 6-65, centro, maxidulces centro por el exito ",
    "lat": 2.4395367,
    "lon": -76.6055829
  },
  {
    "document": "1061694595",
    "zone": 21,
    "address": "Carrera 9 6n-35, santa clara, instructora tecnicas de conduccion fiego López ",
    "lat": 2.4584391,
    "lon": -76.59379109999999
  },
  {
    "document": "1061695270",
    "zone": 13,
    "address": "calle 31 Norte #4-66, yambitara, arquitecto",
    "lat": 2.457161919925375,
    "lon": -76.58742930931379
  },
  {
    "document": "1061695689",
    "zone": 28,
    "address": "Carrera 5# 1-03, centro, cordinador ingles para todos",
    "lat": 2.4444511,
    "lon": -76.60382709999999
  },
  {
    "document": "1061695795",
    "zone": 19,
    "address": "calle 10 #15-59, ikonos 221, ingeniero 221",
    "lat": 2.455722091521967,
    "lon": -76.59946918487549
  },
  {
    "document": "1061695965",
    "zone": 81,
    "address": "Carrera 12 # 17-52, dean bajo, techos y estructuras",
    "lat": 2.4327824,
    "lon": -76.6156613
  },
  {
    "document": "1061696098",
    "zone": 31,
    "address": "Carrera 8 #6-40, centro, peluquería viviana martinez",
    "lat": 2.4406844,
    "lon": -76.60830179999999
  },
  {
    "document": "1061696174",
    "zone": 19,
    "address": "calle 10 #15-59, santa clara, ikonos cobrador crediexpress 309",
    "lat": 2.455722091521967,
    "lon": -76.59946918487549
  },
  {
    "document": "1061696336",
    "zone": 23,
    "address": "Calle 11n # 7-49,  prados del norte,  sanitas auxiliar administrativo 5 piso",
    "lat": 2.451949,
    "lon": -76.60189460000001
  },
  {
    "document": "1061696417",
    "zone": 28,
    "address": "Calle 2 # 6A 54,  modelo,  comfacauca oficina juridica",
    "lat": 2.4428698,
    "lon": -76.6016728
  },
  {
    "document": "1061696563",
    "zone": 69,
    "address": "Carrera 20 # 15a-15, villa garcia, propietaria panaderia  ",
    "lat": 2.4380368,
    "lon": -76.6221379
  },
  {
    "document": "1061696714",
    "zone": 3,
    "address": "calle 69 Norte #4-40, la paz, forros",
    "lat": 2.4736562650529517,
    "lon": -76.55888542397759
  },
  {
    "document": "1061696837",
    "zone": 23,
    "address": "Calle 13n # 7-04, prados del norte, NA",
    "lat": 2.4521914,
    "lon": -76.6011632
  },
  {
    "document": "1061697096",
    "zone": 18,
    "address": "carrera 15 #8 Norte-124, calatrava, jardinero",
    "lat": 2.4581184990563574,
    "lon": -76.60547584654579
  },
  {
    "document": "1061697195",
    "zone": 47,
    "address": "carrera 48D #1 Norte-16, los narnjos, mark mars distribuciones ",
    "lat": 2.4597299508939923,
    "lon": -76.63718208711693
  },
  {
    "document": "1061697732",
    "zone": 2,
    "address": "diagonal 50 Norte #20-254, conjunto l'grands, variante norte propietaria casa eventos",
    "lat": 2.4948136477077942,
    "lon": -76.5748518705368
  },
  {
    "document": "1061698218",
    "zone": 4,
    "address": "calle 68 #13-08, bello horizonte, propietario tapiceria",
    "lat": 2.484827761086953,
    "lon": -76.56627467946836
  },
  {
    "document": "1061698354",
    "zone": 44,
    "address": "Calle 2d # 47-12, lomas de granada, agropeveterinaria",
    "lat": 2.4558551,
    "lon": -76.6332932
  },
  {
    "document": "1061698809",
    "zone": 8,
    "address": "Calle 56 #10-86, villa del viento, casa 2",
    "lat": 2.4801213,
    "lon": -76.57773159999999
  },
  {
    "document": "1061698835",
    "zone": 28,
    "address": "Carrera 2 # 2-20, la pamba, propietaria restaurante la biquina",
    "lat": 2.4425774,
    "lon": -76.6017133
  },
  {
    "document": "1061698854",
    "zone": 26,
    "address": "Carrera 6 # 10n-142, barrio bolivar, enfermero hospital san jose",
    "lat": 2.4500636,
    "lon": -76.5997707
  },
  {
    "document": "1061698934",
    "zone": 42,
    "address": "carrera 29A #6A-41,  San Jose,  Taxi WHT 415",
    "lat": 2.4477412744505713,
    "lon": -76.62633370371637
  },
  {
    "document": "1061699059",
    "zone": 87,
    "address": "calle 17 #1-10, los sauces, asistente juridico",
    "lat": 2.430525931038521,
    "lon": -76.6031037595957
  },
  {
    "document": "1061699138",
    "zone": 21,
    "address": "Calle 18N # 8-33, el recuerdo, renacer",
    "lat": 2.453265,
    "lon": -76.59639849999999
  },
  {
    "document": "1061699152",
    "zone": 28,
    "address": "Calle 2 # 4-86, centro, aux contable desoagro",
    "lat": 2.4436373,
    "lon": -76.6040294
  },
  {
    "document": "1061699164",
    "zone": 39,
    "address": "carrera 28 # 5A - 58, Santa Helena , Auxiliar de odontología ",
    "lat": 2.4484581,
    "lon": -76.6249374
  },
  {
    "document": "1061699387",
    "zone": 26,
    "address": "Carrera 6 # 10n-142, barrio bolivar, farmacia hospital san jose ",
    "lat": 2.4500636,
    "lon": -76.5997707
  },
  {
    "document": "1061699733",
    "zone": 46,
    "address": "Carrera 45A #2 Norte-15, lagos de occidente, tecnico de movistar ",
    "lat": 2.4607694475222233,
    "lon": -76.63300499664271
  },
  {
    "document": "1061699832",
    "zone": 13,
    "address": "Calle 26n # 3-05, pueblillo, enseguida de la iglesia",
    "lat": 2.4554304,
    "lon": -76.5897518
  },
  {
    "document": "1061699847",
    "zone": 1,
    "address": "NA,  NA, km 2 via cali aplanchados doña chepa",
    "lat": 2.508715685059232,
    "lon": -76.5466833114624
  },
  {
    "document": "1061700621",
    "zone": 85,
    "address": "Carrera 3 #17-122, calicanto, mensajero domiexpress ",
    "lat": 2.4308196057883125,
    "lon": -76.6080796930654
  },
  {
    "document": "1061700989",
    "zone": 6,
    "address": "Carrera 12 # 60n-03, san ignacio, NA",
    "lat": 2.485652,
    "lon": -76.5763434
  },
  {
    "document": "1061701180",
    "zone": 102,
    "address": "Calle 8 # 10-00, san camilo, palacio de justicia juzgado 6 civil del circuito escribiente",
    "lat": 2.439816,
    "lon": -76.61048079999999
  },
  {
    "document": "1061701303",
    "zone": 21,
    "address": "Calle 18N # 7-36, el recuerdo, juguemos cajera",
    "lat": 2.454013,
    "lon": -76.5968257
  },
  {
    "document": "1061701454",
    "zone": 37,
    "address": "Carrera 20 #8a-05,  guayabal,  chelas burguer ",
    "lat": 2.4418616,
    "lon": -76.6187131
  },
  {
    "document": "1061701491",
    "zone": 19,
    "address": "Carrera 11 # 17n-59, antonio nariño, auxiliar de enfermeria",
    "lat": 2.4559298,
    "lon": -76.5979749
  },
  {
    "document": "1061701666",
    "zone": 35,
    "address": "Carrera 21 # 3-09, pandiguando, alcanos de colombia frente al terminal  ",
    "lat": 2.4473424,
    "lon": -76.6181429
  },
  {
    "document": "1061701763",
    "zone": 44,
    "address": "Carrera 41 #3-47, maria occidente, NA",
    "lat": 2.4550201,
    "lon": -76.6335034
  },
  {
    "document": "1061701832",
    "zone": 1,
    "address": "NA,  NA, km 3 rio blanco aplanchados doña chepa",
    "lat": 2.508715685059232,
    "lon": -76.5466833114624
  },
  {
    "document": "1061701840",
    "zone": 99,
    "address": "Carrera 6 # 11-35, empedrado, tejidos tricolana empedrado ",
    "lat": 2.435915,
    "lon": -76.6079298
  },
  {
    "document": "1061701914",
    "zone": 25,
    "address": "Carrera 7 # 1-66, centro, gestora documental edificio cesar negret CRC 1piso",
    "lat": 2.4451456,
    "lon": -76.60567019999999
  },
  {
    "document": "1061702153",
    "zone": 41,
    "address": "Carrera 33 # 4-91, sombrilla, taller auto motors",
    "lat": 2.4518871,
    "lon": -76.6282727
  },
  {
    "document": "1061702286",
    "zone": 23,
    "address": "Carrera 7 # 14n-29, el recuerdo, sede administrativa hospital san jose oficina de presupuesto",
    "lat": 2.4524176,
    "lon": -76.6000322
  },
  {
    "document": "1061702403",
    "zone": 36,
    "address": "NA, NA,  cc campanario vigilante",
    "lat": 2.4448143,
    "lon": -76.6147395
  },
  {
    "document": "1061702681",
    "zone": 76,
    "address": "Calle 8B #21-32, dean bajo, NA",
    "lat": 2.441032977130821,
    "lon": -76.62112934797509
  },
  {
    "document": "1061702742",
    "zone": 19,
    "address": "Carrera 9a # 17an-23, antonio nariño, enfermera ips dimamed antonio nariño",
    "lat": 2.4556252,
    "lon": -76.5985048
  },
  {
    "document": "1061703163",
    "zone": 14,
    "address": "calle 27 Norte #7C-06, palace, propietario gimnasio cm box",
    "lat": 2.460743925631942,
    "lon": -76.59065008163452
  },
  {
    "document": "1061703390",
    "zone": 16,
    "address": "Calle 19 #16-53, campamento, ",
    "lat": 2.462209017444573,
    "lon": -76.59845202962408
  },
  {
    "document": "1061704242",
    "zone": 20,
    "address": "Carrera 9A #6 Norte-34,  santa clra,  equilibrio",
    "lat": 2.451852194124501,
    "lon": -76.6060579549958
  },
  {
    "document": "1061704573",
    "zone": 50,
    "address": "Calle 78n # 10 a 110, rio blanco, parque industrial parque logistico bodega 25",
    "lat": 2.457055223285087,
    "lon": -76.64133951444795
  },
  {
    "document": "1061704694",
    "zone": 29,
    "address": "Carrera 5 5-40,  NA,  colegio mayor consultorio enfermeria ",
    "lat": 2.4406902,
    "lon": -76.6053131
  },
  {
    "document": "1061704759",
    "zone": 33,
    "address": "Calle 5a carrera 15, barrio valencia, panadeia SOJOPAN",
    "lat": 2.4434208,
    "lon": -76.6137548
  },
  {
    "document": "1061704817",
    "zone": 1,
    "address": "calle 78 #10A-110, parque industrial, bodega 43 dizfranco",
    "lat": 2.4996928040432698,
    "lon": -76.56111656648177
  },
  {
    "document": "1061704820",
    "zone": 92,
    "address": "Carrera 5E Bis #9B-27, villa helena, maestro de construccion",
    "lat": 2.4356731283949884,
    "lon": -76.60012322101485
  },
  {
    "document": "1061704846",
    "zone": 78,
    "address": "Calle 12 #19B-49 , pajonal, 2do piso",
    "lat": 2.4386823,
    "lon": -76.61987280000001
  },
  {
    "document": "1061704873",
    "zone": 75,
    "address": "Manzana 25 # 25-11, tomas Cipriano, conductor la blanca",
    "lat": 2.444516179323587,
    "lon": -76.62581409957149
  },
  {
    "document": "1061704983",
    "zone": 31,
    "address": "Carrera 6 #7-09, centro, Disagro variante ",
    "lat": 2.439545,
    "lon": -76.60661259999999
  },
  {
    "document": "1061705063",
    "zone": 5,
    "address": "carrera 14 #67 Norte-98,  bello horizonte,  propietario taller soldadura WF ",
    "lat": 2.4858407180470237,
    "lon": -76.56756436889542
  },
  {
    "document": "1061705114",
    "zone": 31,
    "address": "Carrera 9 #7-60, centro, helados de paila auxiliar de producción",
    "lat": 2.4400425,
    "lon": -76.60949010000002
  },
  {
    "document": "1061705117",
    "zone": 13,
    "address": "Carrera 6 # 26N, Los Hoyos, cajera placita",
    "lat": 2.4572009214720167,
    "lon": -76.5895505255738
  },
  {
    "document": "1061705164",
    "zone": 44,
    "address": "Calle 5 # 50-201, las garzas, translibertad salida al tambo ",
    "lat": 2.4556868,
    "lon": -76.6392632
  },
  {
    "document": "1061705534",
    "zone": 23,
    "address": "Calle 9 #8 Norte-21, prados del norte , auxiliar de cocina frijol verde",
    "lat": 2.45194214209915,
    "lon": -76.6036448174851
  },
  {
    "document": "1061706221",
    "zone": 22,
    "address": "carrera 4C #15 Norte-154, la estancia, secretaria clinigastro valle pubenza oficina 111",
    "lat": 2.450397426093051,
    "lon": -76.59710347652435
  },
  {
    "document": "1061706404",
    "zone": 6,
    "address": "calle 48 Norte #9-126, variante norte, torres de milano torre c apto10",
    "lat": 2.4886825559586074,
    "lon": -76.58554315567017
  },
  {
    "document": "1061706419",
    "zone": 19,
    "address": "carrera 10 #15 Norte-79, santa clara, cobrador crediexpres oficina 309",
    "lat": 2.4555632876598734,
    "lon": -76.59965678214265
  },
  {
    "document": "1061706434",
    "zone": 33,
    "address": "Carrera 11 # 7-85, barrio valencia, manicurista",
    "lat": 2.4405835,
    "lon": -76.6115418
  },
  {
    "document": "1061706437",
    "zone": 36,
    "address": "Carrera 17 # 4-2, la esmeralda, bomba mobil esmeralda",
    "lat": 2.4450044,
    "lon": -76.614882
  },
  {
    "document": "1061706548",
    "zone": 10,
    "address": "carrera 7 #41 Norte-30, tres margaritas, apartameto 403A",
    "lat": 2.4676311681889103,
    "lon": -76.58034313622322
  },
  {
    "document": "1061706708",
    "zone": 3,
    "address": "transversal 8D #67 Norte-09, san eduardo, Chilango Padrisimo Boulevard Rose Santa Clara",
    "lat": 2.4774404544618283,
    "lon": -76.56543770935353
  },
  {
    "document": "1061706762",
    "zone": 15,
    "address": "Carrera 9 #24-21, ciudad jardin, campanario local 129 mario hernandez",
    "lat": 2.4593879786899624,
    "lon": -76.59378290176392
  },
  {
    "document": "1061706989",
    "zone": 22,
    "address": "calle 18A Norte #5-20, la estancia, clínica san rafael facturacion de hurgencias",
    "lat": 2.451594807095691,
    "lon": -76.59665339077338
  },
  {
    "document": "1061707353",
    "zone": 49,
    "address": "Calle 56 # 55-03, Lomas De Granada, Ceo Diagonal al Cai",
    "lat": 2.4651993737111266,
    "lon": -76.64286403506011
  },
  {
    "document": "1061707394",
    "zone": 22,
    "address": "Calle 18n # con cra2, urbanización pomona, vigilante pomona",
    "lat": 2.4483216,
    "lon": -76.5946612
  },
  {
    "document": "1061707408",
    "zone": 25,
    "address": "Carrera 7 # 1-66, centro, contratista Ed Cesar Negret",
    "lat": 2.4451456,
    "lon": -76.60567019999999
  },
  {
    "document": "1061707875",
    "zone": 62,
    "address": "NA,  NA, vereda torres bomba entrada",
    "lat": 2.44837674580177,
    "lon": -76.63612689049091
  },
  {
    "document": "1061709185",
    "zone": 29,
    "address": "Carrera 5 # 6-45, centro, exito auxiliar de ventas ",
    "lat": 2.4397252,
    "lon": -76.6054149
  },
  {
    "document": "1061709407",
    "zone": 22,
    "address": "Calle 15n # 2-350, clinica la estancia, enfermeria area de ginecologia piso 3",
    "lat": 2.4501589,
    "lon": -76.5981138
  },
  {
    "document": "1061709445",
    "zone": 30,
    "address": "Calle 6 8-98, centro, mesera pio pio centro",
    "lat": 2.4413072,
    "lon": -76.60883969999999
  },
  {
    "document": "1061709502",
    "zone": 71,
    "address": "Carrera 28 #19-11, solidaridad, ",
    "lat": 2.44261689751289,
    "lon": -76.62890047641162
  },
  {
    "document": "1061709538",
    "zone": 13,
    "address": "Calle 5 con carrera  4, centro, docente universidad autonoma",
    "lat": 2.45669,
    "lon": -76.589
  },
  {
    "document": "1061709727",
    "zone": 4,
    "address": "carrera 9 #71 Norte-60, sena alto cauca ,  sena norte instructora",
    "lat": 2.4828028207401345,
    "lon": -76.56258238321023
  },
  {
    "document": "1061709741",
    "zone": 3,
    "address": "calle 70C Norte #2A-39, la paz, antigua perrera ingeniera",
    "lat": 2.4732922350155753,
    "lon": -76.5569490860916
  },
  {
    "document": "1061709927",
    "zone": 26,
    "address": "Carrera 6 #7 Norte-07, barrio bolivar, propietaria pañalera mis bebes barrio bolivar",
    "lat": 2.4493835855369777,
    "lon": -76.60146069505849
  },
  {
    "document": "1061710284",
    "zone": 23,
    "address": "Carrera 8 #13 Norte-44,  El recuerdo, hospedario estancia",
    "lat": 2.4527418683312727,
    "lon": -76.60111720061572
  },
  {
    "document": "1061710362",
    "zone": 23,
    "address": "Carrera 7a # 21n - 65, ciudad jardin, auxiliar proyectos iar",
    "lat": 2.4536861,
    "lon": -76.597679
  },
  {
    "document": "1061710689",
    "zone": 26,
    "address": "Calle 1n # 5 -55, barrio bolivar, vendedora local 111 perfumeria barrio bolivar",
    "lat": 2.4460451,
    "lon": -76.6049781
  },
  {
    "document": "1061710705",
    "zone": 29,
    "address": "Carrera 6 # 4-21, centro, fisioterapeuta alcaldia municipal",
    "lat": 2.441529,
    "lon": -76.6051892
  },
  {
    "document": "1061710706",
    "zone": 25,
    "address": "Calle 3 # 9n-24,  centro,  banco de occidente ",
    "lat": 2.4440266,
    "lon": -76.6081126
  },
  {
    "document": "1061710826",
    "zone": 38,
    "address": "Carrera 20c # 7a 117,  guayabal,  campanario local 218 dentix ",
    "lat": 2.4432988,
    "lon": -76.6192374
  },
  {
    "document": "1061711712",
    "zone": 101,
    "address": "Carrera 7 # 12-101, empedrado, pastelero delicias de la 13",
    "lat": 2.4348155,
    "lon": -76.60924399999999
  },
  {
    "document": "1061712237",
    "zone": 7,
    "address": "Transversal 9A # 59N 45, via al bosque, matiz al lado de bariloche",
    "lat": 2.4839212,
    "lon": -76.5792215
  },
  {
    "document": "1061712501",
    "zone": 68,
    "address": "Diagonal 15A #18B-21, versalles la ladera, ",
    "lat": 2.436121334801807,
    "lon": -76.62152842283064
  },
  {
    "document": "1061712864",
    "zone": 22,
    "address": "Carrera 6 #10n-98,  la estancia,  propietario restaurante rancho de juancho",
    "lat": 2.451597,
    "lon": -76.5987596
  },
  {
    "document": "1061713000",
    "zone": 2,
    "address": "Calle 78 #19-251, la aldea, conjunto versalles casa j8 menar tapabocas",
    "lat": 2.4956121881495545,
    "lon": -76.56700909137726
  },
  {
    "document": "1061713289",
    "zone": 29,
    "address": "Carrera 3 # 21-66, calicanto, arturo calle campanario ",
    "lat": 2.4419953,
    "lon": -76.6028099
  },
  {
    "document": "1061713454",
    "zone": 8,
    "address": "calle 56 Norte #9-08, villa del viento, proietariaa vulcanizadora ",
    "lat": 2.4787099,
    "lon": -76.5762081
  },
  {
    "document": "1061713655",
    "zone": 22,
    "address": "Calle 19an # 1-87, real pomona, uber dmu 785 oviedo",
    "lat": 2.4503215,
    "lon": -76.5944882
  },
  {
    "document": "1061713795",
    "zone": 8,
    "address": "carrera 9 #60 Norte-151, bellavista, decorceramicas",
    "lat": 2.4798395849616357,
    "lon": -76.57554522156715
  },
  {
    "document": "1061713837",
    "zone": 20,
    "address": "Carrera 11 Norte #12-45, santa clara, ips minga",
    "lat": 2.4547447984667192,
    "lon": -76.60152177989882
  },
  {
    "document": "1061714113",
    "zone": 36,
    "address": "NA,  NA,  abogada procuraduria ",
    "lat": 2.4448143,
    "lon": -76.6147395
  },
  {
    "document": "1061714211",
    "zone": 1,
    "address": "NA,  NA,  Km 3 via totoro almacenista aplanchados doña chepa ",
    "lat": 2.508715685059232,
    "lon": -76.5466833114624
  },
  {
    "document": "1061714385",
    "zone": 21,
    "address": "Carrera 9 # 24an-21, ciudad jardin, vigilante campanario 3 piso ",
    "lat": 2.4582831,
    "lon": -76.5940323
  },
  {
    "document": "1061714685",
    "zone": 6,
    "address": "Carrera 17 #60 Norte-151, el uvo, mesera restaurante",
    "lat": 2.4884772090512626,
    "lon": -76.5753365732734
  },
  {
    "document": "1061714698",
    "zone": 18,
    "address": "Carrera 15 #8-124, calatrava, antes del batallon",
    "lat": 2.4580213114051817,
    "lon": -76.60544246435165
  },
  {
    "document": "1061714725",
    "zone": 96,
    "address": "Calle 17 #1aE-14, las ferias, ",
    "lat": 2.4316300231271963,
    "lon": -76.60471320890193
  },
  {
    "document": "1061715230",
    "zone": 20,
    "address": "Carrera 11 #9-39, santa clara, ips osteosalud  ",
    "lat": 2.4538845948624264,
    "lon": -76.60421305595011
  },
  {
    "document": "1061715440",
    "zone": 54,
    "address": "Calle 2e # 55-23, lomas de granada, NA",
    "lat": 2.460313,
    "lon": -76.644144
  },
  {
    "document": "1061715579",
    "zone": 73,
    "address": "Carrera 33 #18-15, munichs, arte muebles",
    "lat": 2.4466362044959578,
    "lon": -76.63296700000389
  },
  {
    "document": "1061715658",
    "zone": 99,
    "address": "Calle 10 #2-49, santa ines, sena norte instructor",
    "lat": 2.4358392,
    "lon": -76.60449919999999
  },
  {
    "document": "1061715820",
    "zone": 97,
    "address": "Carrera 1Ae # 17A-10, Alameda, Dilan punto net internet",
    "lat": 2.4373178,
    "lon": -76.6024645
  },
  {
    "document": "1061716758",
    "zone": 44,
    "address": "Carrera 41 # 2a-23, maria occidente, NA",
    "lat": 2.4564465,
    "lon": -76.6327118
  },
  {
    "document": "1061716938",
    "zone": 80,
    "address": "Carrera 17 calle 13, barrio colombia 1etapa, diagonal de la chirimia maxihogar cajera",
    "lat": 2.4369702,
    "lon": -76.6160897
  },
  {
    "document": "1061717568",
    "zone": 30,
    "address": "Carrera 9 # 5-81, centro, vendedora siempre bella cosmetic centro",
    "lat": 2.4414267,
    "lon": -76.6088669
  },
  {
    "document": "1061717755",
    "zone": 31,
    "address": "Carrera 8 # 6-68, centro, analista cooprocenva",
    "lat": 2.4405084,
    "lon": -76.60843899999999
  },
  {
    "document": "1061717780",
    "zone": 36,
    "address": "NA,  NA,  Abono",
    "lat": 2.4448143,
    "lon": -76.6147395
  },
  {
    "document": "1061717810",
    "zone": 3,
    "address": "calle 73A Norte #6A-87, la paz, local fuera de serie campanario",
    "lat": 2.479129733423062,
    "lon": -76.55926214516133
  },
  {
    "document": "1061717841",
    "zone": 99,
    "address": "Calle 11 # 3-76, empedrado, colegio cristo rey ",
    "lat": 2.4350032,
    "lon": -76.6059617
  },
  {
    "document": "1061717912",
    "zone": 19,
    "address": "carrera 10 #15 Norte-79, santa clara, ikonos cobrador Crediexpress 309",
    "lat": 2.4556218236462746,
    "lon": -76.59954352640456
  },
  {
    "document": "1061717925",
    "zone": 19,
    "address": "carrera 10 #15 Norte-79, santa clara, gerente crediexpress oficina 309",
    "lat": 2.4556152566343155,
    "lon": -76.59957424764657
  },
  {
    "document": "1061717928",
    "zone": 8,
    "address": "Calle 52 Norte #17 Norte-181, villa del viento, terrazas del tablazo",
    "lat": 2.482219153887761,
    "lon": -76.58560484647751
  },
  {
    "document": "1061717987",
    "zone": 68,
    "address": "Calle 15 # 17-15, la ladera, facturacion remo",
    "lat": 2.43502,
    "lon": -76.6172741
  },
  {
    "document": "1061718064",
    "zone": 31,
    "address": "Carrera 7 # 6-61, centro, cajera herpo",
    "lat": 2.4401852,
    "lon": -76.6072239
  },
  {
    "document": "1061718141",
    "zone": 25,
    "address": "Calle 3 #7-08, centro, agustin codazzi operaria de aseo",
    "lat": 2.443454500000001,
    "lon": -76.6063668
  },
  {
    "document": "1061718301",
    "zone": 19,
    "address": "carrera 10 #15 Norte-79, santa clara, ikonos abot laboratorio medico",
    "lat": 2.4556178373374906,
    "lon": -76.59954385964993
  },
  {
    "document": "1061718427",
    "zone": 34,
    "address": "Carrera 16 # 2-49,  El cadillal,  asesora de ventas y cajera ",
    "lat": 2.4455466,
    "lon": -76.61356479999999
  },
  {
    "document": "1061718429",
    "zone": 5,
    "address": "Carrera 9 #67 Norte-199, bello horizonte, local 5 surticauca conductor ",
    "lat": 2.4814962232983198,
    "lon": -76.5659160143526
  },
  {
    "document": "1061718494",
    "zone": 34,
    "address": "Calle 4 # 13-32, cadillal, vidrios templados del cauca ",
    "lat": 2.4443645,
    "lon": -76.61202879999999
  },
  {
    "document": "1061718610",
    "zone": 22,
    "address": "Calle 15n # 2-350, la estancia, asmet salud administrativa ",
    "lat": 2.4501589,
    "lon": -76.5981138
  },
  {
    "document": "1061718786",
    "zone": 22,
    "address": "Calle 16 n  11 34,  antonio  nariño,  armony spa",
    "lat": 2.4477462,
    "lon": -76.5949568
  },
  {
    "document": "1061718961",
    "zone": 23,
    "address": "Carrera 9 #13-12,  Prados del norte,  local 2-3",
    "lat": 2.453183756113777,
    "lon": -76.60151107162055
  },
  {
    "document": "1061719252",
    "zone": 20,
    "address": "Calle 10n #9n-37, santa clara, asesora comercial santillana park",
    "lat": 2.453009,
    "lon": -76.60342399999999
  },
  {
    "document": "1061719460",
    "zone": 33,
    "address": "Carrera 15 # 5A-20, Barrio Valencia, propietaria local diana marcela ",
    "lat": 2.443832,
    "lon": -76.6134953
  },
  {
    "document": "1061719618",
    "zone": 44,
    "address": "Carrera 38A #4-66, maria occidente, madre comunitaria hogar angelitos",
    "lat": 2.453572,
    "lon": -76.6323611
  },
  {
    "document": "1061719696",
    "zone": 31,
    "address": "Calle 6 # 6- 13, barrio valencia, NA",
    "lat": 2.4403463,
    "lon": -76.60645629999999
  },
  {
    "document": "1061720153",
    "zone": 47,
    "address": "Carrera 48A #3-57, atardeceres del cauca los naranjos, distribuidora de chorizos",
    "lat": 2.457696855998583,
    "lon": -76.63637831514974
  },
  {
    "document": "1061720381",
    "zone": 45,
    "address": "Conjuntos Los Robles Maria Occidente ,  Bloque I Apt 302",
    "lat": 2.4564854838772936,
    "lon": -76.62886820733547
  },
  {
    "document": "1061720390",
    "zone": 30,
    "address": " Carrera 6 # 5-60, centro, vendedor celu accesorios",
    "lat": 2.4407995,
    "lon": -76.60628
  },
  {
    "document": "1061720827",
    "zone": 9,
    "address": "calle 62 Norte #7-67, portal de los eucaliptos, frente a sandunga Geat SAS ",
    "lat": 2.478978580451652,
    "lon": -76.5727324656414
  },
  {
    "document": "1061720888",
    "zone": 5,
    "address": "calle 66 Norte #11-42, bello horizonte, puesto de fritanga ",
    "lat": 2.4841298873647073,
    "lon": -76.5689221075775
  },
  {
    "document": "1061721114",
    "zone": 13,
    "address": "carrera 6 #26A Norte-02, los hoyos, mi parrilla gourmet",
    "lat": 2.457202358158438,
    "lon": -76.5894556902321
  },
  {
    "document": "1061721260",
    "zone": 101,
    "address": "Carrera 8 # 4  -  55, Centro ",
    "lat": 2.4386650661553615,
    "lon": -76.60909228026867
  },
  {
    "document": "1061721280",
    "zone": 30,
    "address": "Calle 4 # 6-44, centro, banco bogota segundo piso ",
    "lat": 2.442373,
    "lon": -76.606014
  },
  {
    "document": "1061721333",
    "zone": 24,
    "address": "transversal 9 #5 Norte-90, barrio modelo, placita de la terminal surtidor",
    "lat": 2.4500501570809363,
    "lon": -76.60830686747167
  },
  {
    "document": "1061721410",
    "zone": 20,
    "address": "Carrera 9 Norte #6-50, San camilo,  jefe de rodamiento transvictoria 2 piso",
    "lat": 2.452401048393478,
    "lon": -76.60627444506831
  },
  {
    "document": "1061721967",
    "zone": 5,
    "address": "carrera 20 #63 Norte-55, el uvo, monte luna casa 49 fuera de la ciudad",
    "lat": 2.4902594,
    "lon": -76.571685
  },
  {
    "document": "1061722385",
    "zone": 3,
    "address": "Calle 68N # 8A  -  92, San Eduardo, Propietaria Salón De Belleza ",
    "lat": 2.48453842555967,
    "lon": -76.55983183532953
  },
  {
    "document": "1061722776",
    "zone": 15,
    "address": "carrera 9 #24 Norte-21, ciudad jardin, centro comercial campanario guarda de seguridad ",
    "lat": 2.4590305417860723,
    "lon": -76.59369658742914
  },
  {
    "document": "1061723151",
    "zone": 5,
    "address": "Calle 67 # 12 -132, bello horizonte, guarda de seguridad puesto de salud ",
    "lat": 2.4851155,
    "lon": -76.5681714
  },
  {
    "document": "1061724290",
    "zone": 7,
    "address": "transversal 9 Norte #60 Norte-146, via al bosque, spa autos ",
    "lat": 2.4826157482923774,
    "lon": -76.57711297273636
  },
  {
    "document": "1061724380",
    "zone": 7,
    "address": "Bosque Encantado,  Casa 62",
    "lat": 2.483720785621281,
    "lon": -76.59256618469954
  },
  {
    "document": "1061724422",
    "zone": 5,
    "address": "carrera 13 #67 Norte-168, bello horizonte, asados del gordo propietario",
    "lat": 2.484966455415435,
    "lon": -76.56682634014334
  },
  {
    "document": "1061724922",
    "zone": 30,
    "address": "Carrera 7 # 3-04, centro, claro plaza colonial consultor",
    "lat": 2.4432735,
    "lon": -76.6062833
  },
  {
    "document": "1061725008",
    "zone": 83,
    "address": "Carrera 9 # 24-115, dean alto, propietaria tienda manquillo ",
    "lat": 2.4296894,
    "lon": -76.6129433
  },
  {
    "document": "1061725140",
    "zone": 8,
    "address": "Carrera 9 # 54n 61, villa del viento, porpietario distrillantas",
    "lat": 2.4779663,
    "lon": -76.5767746
  },
  {
    "document": "1061725185",
    "zone": 102,
    "address": "Calle 10 # 9 82, san camilo, tienda colegio san camilo",
    "lat": 2.4382329,
    "lon": -76.6103799
  },
  {
    "document": "1061725670",
    "zone": 6,
    "address": "calle 48 Norte #9-126, torres de milano, torre A apt 303 ",
    "lat": 2.488644338307782,
    "lon": -76.5856196112774
  },
  {
    "document": "1061725718",
    "zone": 3,
    "address": "carrera 4 #71A Norte-15, la paz, propietaria sala de belleza francedy",
    "lat": 2.4747732925833645,
    "lon": -76.55721481130853
  },
  {
    "document": "1061725806",
    "zone": 78,
    "address": "calle 12A #19-80, santa fe bajo,  drogueria samai",
    "lat": 2.438434200000001,
    "lon": -76.62003059999999
  },
  {
    "document": "1061725827",
    "zone": 22,
    "address": "calle 18A Norte #5-20, la estancia, clininica reina victoria piso 2 auxiliar de laboratorio",
    "lat": 2.451575863081012,
    "lon": -76.59665554454693
  },
  {
    "document": "1061725957",
    "zone": 39,
    "address": "Calle 6 #24-00, santa helena, vigilante icbf",
    "lat": 2.4468065476651217,
    "lon": -76.62224918603897
  },
  {
    "document": "1061726138",
    "zone": 11,
    "address": "Carrera 6 # 27 Norte -  36, Palace, Estilista Integral Centro De Belleza Gisell",
    "lat": 2.457912446916685,
    "lon": -76.5883668512106
  },
  {
    "document": "1061726178",
    "zone": 49,
    "address": "NA,  NA, lote 15 manzana 1 la estrella roja",
    "lat": 2.4652229462266706,
    "lon": -76.64286424764506
  },
  {
    "document": "1061726268",
    "zone": 23,
    "address": "calle 8 Norte #6A-124, prados del norte, gerente administrativa inmobiliaria cabal",
    "lat": 2.4502322,
    "lon": -76.6039833
  },
  {
    "document": "1061726304",
    "zone": 39,
    "address": "Carrera 29 #8-58, Canada, ",
    "lat": 2.446815,
    "lon": -76.6265562
  },
  {
    "document": "1061726408",
    "zone": -1,
    "address": "Vereda Poblazon ",
    "lat": 2.4085463496435073,
    "lon": -76.56191825866699
  },
  {
    "document": "1061726691",
    "zone": 52,
    "address": "Calle 5 # 21-60, la esmeralda, recepcionista hotel luz plaza esmeralda ",
    "lat": 2.4682415886711087,
    "lon": -76.64378871941214
  },
  {
    "document": "1061726898",
    "zone": 11,
    "address": "calle 29A Norte #6-12, alicante, condominio versalles la aldea oraseg",
    "lat": 2.4599434791258847,
    "lon": -76.5859561791221
  },
  {
    "document": "1061726930",
    "zone": 99,
    "address": "Calle 11 #3-79, empedrado, Colegio cristo rey colegio salesianas frente a campanario ",
    "lat": 2.4350032,
    "lon": -76.6059617
  },
  {
    "document": "1061726991",
    "zone": 33,
    "address": "Carrera 11 5-56, barrio valencia, analista mundo mujer valencia ",
    "lat": 2.442621755289687,
    "lon": -76.61100536584854
  },
  {
    "document": "1061727283",
    "zone": 83,
    "address": "Carrera 3 17-121, calicanto, propietaria tienda ",
    "lat": 2.428457906368451,
    "lon": -76.61261603758658
  },
  {
    "document": "1061727627",
    "zone": 30,
    "address": "Carrera 9 # 5-30, centro, admnistradora solo uñas",
    "lat": 2.4419358,
    "lon": -76.60888450000002
  },
  {
    "document": "1061727726",
    "zone": 36,
    "address": "NA,  NA,  clinica la estancia ",
    "lat": 2.4448143,
    "lon": -76.6147395
  },
  {
    "document": "1061727759",
    "zone": 9,
    "address": "calle 66 Norte #03-95, vereda gonzalez, mecanico taller de bicicletas",
    "lat": 2.475465285075755,
    "lon": -76.56617784723757
  },
  {
    "document": "1061728251",
    "zone": 29,
    "address": "Carrera 1 # 4-64, la pamba, NA",
    "lat": 2.4402893,
    "lon": -76.6016685
  },
  {
    "document": "1061728304",
    "zone": 21,
    "address": "Carrera 9 # 24an-21, ciudad jardin, asesora campanario claro nuevo",
    "lat": 2.4582831,
    "lon": -76.5940323
  },
  {
    "document": "1061728809",
    "zone": 17,
    "address": "Calle 15 Norte #15-24, manchangara, restaurante la sorpresa machangara",
    "lat": 2.4592188000698396,
    "lon": -76.60244818079147
  },
  {
    "document": "1061728845",
    "zone": 21,
    "address": "Calle 22n # 5-42,  NA,  infraestructura obras publicas juridica ",
    "lat": 2.4565038,
    "lon": -76.5950819
  },
  {
    "document": "1061728865",
    "zone": 15,
    "address": "Carrera 9 #24-21, ciudad jardin, campanario propietaria",
    "lat": 2.4593879786899624,
    "lon": -76.59378290176392
  },
  {
    "document": "1061729050",
    "zone": 50,
    "address": "carrera 52C #5-00, parque de las garzas, torre 22 apto 507, torres de la colina torre 1 apto 401",
    "lat": 2.456033867185283,
    "lon": -76.6411259821245
  },
  {
    "document": "1061729231",
    "zone": 3,
    "address": "Calle 70 Norte #3A-16, la paz,  gestion del riesgo ayudas humanitarias",
    "lat": 2.4736184873039195,
    "lon": -76.55826244342246
  },
  {
    "document": "1061729254",
    "zone": 26,
    "address": "Carrera 6 #10 Norte-142, bolivar, enfermero hospital san jose",
    "lat": 2.4500624564975237,
    "lon": -76.59964084625244
  },
  {
    "document": "1061729734",
    "zone": 30,
    "address": "Carrera 9 # 5-44,  NA,  estilo inglés ",
    "lat": 2.4417546,
    "lon": -76.60889039999999
  },
  {
    "document": "1061729851",
    "zone": 36,
    "address": "NA, NA, villa del viento et 4",
    "lat": 2.4448143,
    "lon": -76.6147395
  },
  {
    "document": "1061729926",
    "zone": 94,
    "address": "Carrera 6e # 14-24, portal de las ferias, NA",
    "lat": 2.4320451,
    "lon": -76.59998879999999
  },
  {
    "document": "1061730040",
    "zone": 21,
    "address": "carrera 6 #18A Norte-34, recuerdo norte, ",
    "lat": 2.4523424717874374,
    "lon": -76.5967012318903
  },
  {
    "document": "1061730242",
    "zone": 24,
    "address": "Carrera 10 # 23-53 piso 2, jorge eliecer gaitan, 3226676110 fiador juan pablo sanchez ",
    "lat": 2.4469493,
    "lon": -76.6075614
  },
  {
    "document": "1061730378",
    "zone": 6,
    "address": "Calle 55cn # 16-02, bosques de morinda,  mesera restaurante adereso",
    "lat": 2.489016,
    "lon": -76.58213719999999
  },
  {
    "document": "1061730596",
    "zone": 19,
    "address": "Carrera 10 # 15n 59, santa clara, aseadora edificio ikonos",
    "lat": 2.4554865,
    "lon": -76.6001758
  },
  {
    "document": "1061731281",
    "zone": 34,
    "address": "Calle 4 #11-35, cadillal, auxiliar de cocina pollo broaster cadillal",
    "lat": 2.44375229107756,
    "lon": -76.61064258012325
  },
  {
    "document": "1061731288",
    "zone": 88,
    "address": "Calle 17 #16E-37, maria oriente, panaderia calima",
    "lat": 2.430135634842799,
    "lon": -76.6002644598484
  },
  {
    "document": "1061731354",
    "zone": 39,
    "address": "Calle 8 # 27-27, santa elena, NA",
    "lat": 2.4461962,
    "lon": -76.6247885
  },
  {
    "document": "1061731577",
    "zone": 25,
    "address": "Carrera 8 # 1n-25, barrio modelo, NA",
    "lat": 2.4444349,
    "lon": -76.60696080000001
  },
  {
    "document": "1061731667",
    "zone": 51,
    "address": "Calle 2c # 56-38, lomas de granada, panaderia lomas  granada",
    "lat": 2.4612327,
    "lon": -76.64373379999999
  },
  {
    "document": "1061731924",
    "zone": 36,
    "address": "NA,  NA,  fisioterapeuta cenfol",
    "lat": 2.4448143,
    "lon": -76.6147395
  },
  {
    "document": "1061731979",
    "zone": 19,
    "address": "calle 23 Norte #9-26, catay, esquina asesor comercial kia ",
    "lat": 2.45757619594243,
    "lon": -76.59494933857636
  },
  {
    "document": "1061732087",
    "zone": 29,
    "address": "Carrera 4 # 4-61, centro, alcaldia patio 4 segundo piso oficina 233",
    "lat": 2.4410842,
    "lon": -76.603995
  },
  {
    "document": "1061732140",
    "zone": 50,
    "address": "Carrera 52C #4-05, bosques de las garzas, torre 5b apto 405",
    "lat": 2.458299761394618,
    "lon": -76.64112905155994
  },
  {
    "document": "1061732324",
    "zone": 4,
    "address": "Calle 73n # 12-92, el placer, cajera placita campecina ",
    "lat": 2.4857655,
    "lon": -76.56298439999999
  },
  {
    "document": "10617324443",
    "zone": 20,
    "address": "Carrera 11 # 10an-37, santa clara, higienista paddy higienista",
    "lat": 2.4542888,
    "lon": -76.60333609999999
  },
  {
    "document": "1061732602",
    "zone": 31,
    "address": "Calle 7 # 9-15, Centro, Bella Imagen Laurita",
    "lat": 2.4405281,
    "lon": -76.60942779999999
  },
  {
    "document": "1061732928",
    "zone": 21,
    "address": "Carrera 9 # 24an-21, ciudad jardin, popsi campanario heladeria local 49",
    "lat": 2.4582831,
    "lon": -76.5940323
  },
  {
    "document": "1061733076",
    "zone": 22,
    "address": "carrera 4 #18 Norte-16, la estancia, analista asmet salud",
    "lat": 2.451091482828265,
    "lon": -76.59660995006561
  },
  {
    "document": "1061733193",
    "zone": 44,
    "address": "carrera 42 #3-31, maria occidente, conductor coordinadora parque industrial bodega 56",
    "lat": 2.4553273,
    "lon": -76.6341534
  },